gridcode,country,longitude,latitude,station_name,station_id,area_km2
4,CA,-121.0124969,55.06528091,MURRAY RIVER ABOVE WOLVERINE RIVER,07FB006,2384.38209360139
8,CA,-107.7436066,54.93027878,DORE RIVER NEAR THE MOUTH,06AG002,2832.01337179386
14,CA,-57.7838287354,48.806640625,COPPER POND BROOK NEAR CORNER BROOK LAKE,02YL011,12.2933693655122
15,CA,-58.78358078,48.1083908081,HIGHLANDS RIVER AT TRANS-CANADA HIGHWAY,02ZA002,69.7938966818165
16,CA,-55.3300018311,47.21641922,GARNISH RIVER NEAR GARNISH,02ZG001,194.78200062483
17,CA,-79.6065826416,45.9491882324,COMMANDA CREEK NEAR COMMANDA,02DD015,123.949815189133
25,CA,-68.4515609741,63.7360305786,APEX RIVER AT APEX,10UH002,54.36171999944
26,CA,-95.8521118164,63.6525802612,KAZAN RIVER ABOVE KAZAN FALLS,06LC001,68606.7205548787
28,CA,-101.3955002,58.00431061,COCHRANE RIVER NEAR BROCHET,06DA002,20248.4027595785
29,CA,-94.19805908,58.01353073,DEER RIVER NORTH OF BELCHER,06FD002,1887.00021832583
30,CA,-96.27668762,58.89128876,SEAL RIVER BELOW GREAT ISLAND,06GD001,48312.8540208648
31,CA,-95.66385651,57.65327835,LITTLE BEAVER RIVER NEAR THE MOUTH,06FB002,4261.13108713729
32,CA,-93.45305634,57.02305984,WEIR RIVER ABOVE THE MOUTH,05UH002,2198.63914961229
33,CA,-94.21617126,56.51258087,LIMESTONE RIVER NEAR BIRD,05UG001,3256.0569543674
34,CA,-62.161441803,56.3731384277,REID BROOK AT OUTLET OF REID POND,03NE001,77.6874095984657
35,CA,-62.1103286743,56.3405609131,CAMP POND BROOK BELOW CAMP POND,03NE002,25.7338126824865
36,CA,-94.69664764,56.34156036,KETTLE RIVER NEAR GILLAM,05UF004,1088.97070985599
37,CA,-93.64111328,56.67694092,ANGLING RIVER NEAR BIRD,05UH001,1647.93515993667
38,CA,-98.88639069,55.93111038,FOOTPRINT RIVER ABOVE FOOTPRINT LAKE,05TF002,655.240345821369
39,CA,-97.35762024,55.99525833,ODEI RIVER NEAR THOMPSON,05TG003,5683.35892500936
41,CA,-98.49,55.91,SAPOCHI RIVER NEAR NELSON HOUSE,05TG006,423.934734790125
42,CA,-98.19207764,55.48984909,TAYLOR RIVER NEAR THOMPSON,05TG002,891.363487334845
43,CA,-74.3399963379,55.6841697693,BALEINE (PETITE RIVIERE DE LA) EN AMONT DU CHENAL ANCEL,03FC008,11195.9028851788
44,CA,-99.22088623,55.49662018,BURNTWOOD RIVER ABOVE LEAF RAPIDS,05TE002,6162.97618389035
45,CA,-61.30168915,55.23413849,UGJOKTOK RIVER BELOW HARP LAKE,03NF001,7356.81681410775
48,CA,-97.00517273,55.74061966,GRASS RIVER ABOVE STANDING STONE FALLS,05TD001,15906.873258717
49,CA,-61.42681122,54.13191986,NASKAUPI RIVER BELOW NASKAUPI LAKE,03PB002,4308.67452366133
51,CA,-97.77500153,53.82221985,GUNISAO RIVER AT JAM RAPIDS,05UA003,3581.74624816417
52,CA,-60.2933082581,53.5128097534,BIG POND BROOK BELOW BIG POND,03OE010,69.0892764157732
53,CA,-85.6515274,54.28974915,SHAMATTAWA RIVER AT OUTLET OF SHAMATTAWA LAKE,04DC002,4819.54235949911
56,CA,-61.5585594177,53.1473884583,PINUS RIVER,03OE011,810.000549382038
58,CA,-57.49385834,53.53427887,EAGLE RIVER ABOVE FALLS,03QC001,11047.4949890573
60,CA,-56.87121964,52.64860916,ALEXIS RIVER NEAR PORT HOPE SIMPSON,03QC002,2293.37817024927
61,CA,-61.18544006,52.61257935,MINIPI RIVER BELOW MINIPI LAKE,03OE003,1961.61495655796
62,CA,-92.5135192871,52.6553611755,ROSEBERRY RIVER ABOVE ROSEBERRY LAKES,04CA003,614.494611591214
64,CA,-87.22769165,54.4996109,WINISK RIVER BELOW ASHEWEIG RIVER TRIBUTARY,04DC001,44119.9735176657
66,CA,-61.31694031,52.22980881,LITTLE MECATINA RIVER ABOVE LAC FOURMONT,02XA003,4473.34888953131
68,CA,-91.79161072,53.35018921,WINDIGO RIVER ABOVE MUSKRAT DAM LAKE,04CB001,10963.1867323712
69,CA,-100.650032043,52.0313301086,NORTH DUCK RIVER AT COWAN,05LG004,222.125443507201
70,CA,-57.5999984741,51.7724990845,"SAINT-PAUL (RIVIERE) A 0,5 KM DU RUISSEAU CHANION",02XC001,5455.39570625905
71,CA,-90.18669128,52.58058167,PIPESTONE RIVER AT KARL LAKE,04DA001,5845.43353089728
73,CA,-64.66161346,52.96844101,ATIKONAK RIVER ABOVE PANCHIA LAKE,03OC003,15852.2002710525
74,CA,-74.59221649,52.17110825,EASTMAIN (RIVIERE) A LA TETE DE LA GORGE PROSPER,03CB004,21509.096469912
76,CA,-78.0969390869,51.5336112976,"PONTAX (RIVIERE) A 60,4 KM DE L'EMBOUCHURE",03BF001,6157.41671291815
79,CA,-93.52121735,51.80982971,BERENS RIVER ABOVE BERENS LAKE,05RC001,5804.78428114422
80,CA,-89.60214233,51.82324982,OTOSKWIN RIVER BELOW BADESDAWA LAKE,04FA001,7502.29060108158
82,CA,-89.88691711,51.64831161,KAWINOGANS RIVER NEAR PICKLE CROW,04FA002,1474.99930964304
83,CA,-91.5945816,51.17377853,CAT RIVER BELOW WESLEYAN LAKE,04GA002,5397.1348510605
84,CA,-96.60453033,51.70341873,BLOODVEIN RIVER ABOVE BLOODVEIN BAY,05RB003,6763.53509716169
85,CA,-97.51222229,51.35617065,FISHER RIVER NEAR DALLAS,05SD003,1569.85871520604
86,CA,-93.0919189453,50.9056091309,TROUTLAKE RIVER ABOVE BIG FALLS,05QC003,2340.11350505252
87,CA,-56.1116905212,50.9244194031,NORTHEAST BROOK NEAR RODDICKTON,02YD002,196.270388480504
88,CA,-100.3324966,51.15613937,WILSON RIVER NEAR ASHVILLE,05LJ045,672.787699673609
90,CA,-99.5461731,51.8484993,WATERHEN RIVER NEAR WATERHEN,05LH005,50559.3181208813
91,CA,-97.03746796,50.96472168,ICELANDIC RIVER NEAR RIVERTON,05SC002,1092.07286033811
93,CA,-99.4853286743,50.8014984131,MCKINNON CREEK NEAR MCCREARY,05LJ027,64.8735484919906
94,CA,-99.79,51.05,OCHRE RIVER AT OCHRE RIVER,05LJ005,342.489142308099
95,CA,-64.58083344,50.68582916,MAGPIE (RIVIERE) A LA SORTIE DU LAC MAGPIE,02VB004,7184.06960488322
96,CA,-93.97019196,50.67699814,LONG-LEGGED RIVER BELOW LONG-LEGGED LAKE,05QE012,553.498150770033
97,CA,-99.52674866,50.94881058,TURTLE RIVER NEAR LAURIER,05LJ007,860.810212686813
98,CA,-96.28302765,51.10128021,MANIGOTAGAN RIVER NEAR MANIGOTAGAN,05RA001,1741.36153062058
99,CA,-80.86393738,51.16083145,KWATABOAHEGAN RIVER NEAR THE MOUTH,04KA001,3606.31898280794
102,CA,-57.15161133,50.60747147,TORRENT RIVER AT BRISTOL'S POOL,02YC001,618.216467096513
103,CA,-98.97028351,50.50569153,BIG GRASS RIVER NEAR GLENELLA,05LL015,964.393798539946
105,CA,-61.7136116028,50.4272193909,"NATASHQUAN (RIVIERE) A 0,6 KM EN AVAL DE LA DECHARGE DU LAC ALIESTE",02WB003,15328.6362408949
106,CA,-99.94613647,50.52331161,ROLLING RIVER NEAR ERICKSON,05MF008,734.01679062249
108,CA,-99.90751648,50.35881042,LITTLE SASKATCHEWAN RIVER NEAR MINNEDOSA,05MF001,1873.08304358447
110,CA,-94.46640778,50.35224915,STURGEON RIVER AT OUTLET OF SALVESEN LAKE,05QE009,1763.24149285918
111,CA,-66.1902770996,50.3502807617,"MOISIE (RIVIERE) A 5,1 KM EN AMONT DU PONT DU Q.N.S.L.R.",02UC002,19015.1302399852
113,CA,-63.62250137,50.30778122,ROMAINE (RIVIERE) AU PONT DE LA Q.I.T.,02VC001,12984.6621522191
116,CA,-57.5775299072,50.162311554,GREAVETT BROOK ABOVE PORTLAND CREEK POND,02YE001,99.2642314199548
117,CA,-93.25858307,50.50756073,CEDAR RIVER BELOW WABASKANG LAKE,05QE008,1629.89793574078
118,CA,-76.38777924,50.74583054,BROADBACK (RIVIERE) A LA SORTIE DU LAC QUENONISCA,03BD002,9943.84903255908
120,CA,-96.7138290405,50.1950492859,DEVILS CREEK NEAR LIBAU,05OJ016,180.050833567448
121,CA,-86.5362472534,50.661190033,LITTLE CURRENT RIVER AT PERCY LAKE,04JF001,4888.65413165253
123,CA,-99.2143936157,49.9009208679,PINE CREEK NEAR MELBOURNE,05LL014,201.078279186236
124,CA,-56.2221412659,49.8935317993,SOUTH WEST BROOK NEAR BAIE VERTE,02YM003,96.221059582209
125,CA,-91.5407485962,50.1672782898,STURGEON RIVER AT MCDOUGALL MILLS,05QA004,3678.2526799742
126,CA,-57.15942001,49.81066895,MAIN RIVER AT PARADISE POOL,02YG001,631.250375079755
127,CA,-99.33,49.74,EPINETTE CREEK NEAR CARBERRY,05MH007,380.510595575557
129,CA,-88.93161011,50.86841965,OGOKI RIVER ABOVE WHITECLAY LAKE,04GB004,10467.7357821359
130,CA,-80.76407623,51.07672119,NORTH FRENCH RIVER NEAR THE MOUTH,04MF001,6599.4001645031
132,CA,-85.2261886597,49.7641906738,PAGWACHUAN RIVER AT HIGHWAY NO. 11,04JD005,1900.87032407142
135,CA,-87.9654388428,49.5976104736,BLACKWATER RIVER AT BEARDMORE,02AD010,649.358814713577
136,CA,-96.60903168,49.64363861,SEINE RIVER NEAR STE. ANNE,05OH007,504.808473080386
138,CA,-98.9079971313,49.4463882446,CYPRESS RIVER NEAR BRUXELLES,05MH008,263.089031096503
140,CA,-98.2497177124,49.3793296814,SOUTH TOBACCO CREEK NEAR MIAMI,05OF017,76.1004309964271
141,CA,-57.1040000916,49.2666702271,BOOT BROOK AT TRANS-CANADA HIGHWAY,02YK008,18.7806828089145
143,CA,-99.51186371,49.56193924,OAK CREEK NEAR STOCKTON,05NG010,1172.94923025391
146,CA,-97.42247009,49.35483932,SHANNON CREEK NEAR MORRIS,05OF014,506.115017916087
147,CA,-90.5808105469,49.6113090515,BRIGHTSAND RIVER AT MOBERLEY,04GB005,1095.91008742921
148,CA,-83.6567993164,49.6828117371,MATTAWISHKWIA RIVER AT HEARST,04LK001,1161.6249353268
149,CA,-95.95683289,49.93878174,WHITEMOUTH RIVER NEAR WHITEMOUTH,05PH003,3691.92194426701
150,CA,-96.29,49.21,RAT RIVER NEAR SUNDOWN,05OE004,435.575420209742
152,CA,-56.67,49.34,SHEFFIELD BROOK NEAR TRANS CANADA HIGHWAY,02YK005,463.423306695888
153,CA,-55.0519981384,49.2160797119,SOUTHWEST BROOK AT LEWISPORTE,02YO012,58.6184221494086
154,CA,-84.5369415283,49.7728881836,NAGAGAMI RIVER AT HIGHWAY NO. 11,04JC002,2025.5422296368
155,CA,-58.1051902771,49.0583114624,RATTLER BROOK NEAR MCIVERS,02YL005,17.0487116014175
158,CA,-87.3767776489,48.9781112671,WHITESAND RIVER ABOVE SCHREIBER AT MINOVA MINE,02BA005,10.8758821065016
159,CA,-97.3053894043,49.0745010376,RIVIERE AUX MARAIS NEAR CHRISTIE,05OC022,181.855236880872
161,CA,-55.3966903687,49.1038284302,PETERS RIVER NEAR BOTWOOD,02YO006,180.554669314911
162,CA,-53.88566971,49.04217148,INDIAN BAY BROOK NEAR NORTHWEST ARM,02YR003,570.15535685026
163,CA,-54.9168891907,49.0112800598,SALMON RIVER NEAR GLENWOOD,02YQ005,81.8578275959734
165,CA,-97.4033966064,49.1912689209,BUFFALO CREEK NEAR ROSENFELD,05OC019,760.726656749419
166,CA,-57.6114196777,49.0122795105,SOUTH BROOK AT PASADENA,02YL004,55.110902420442
167,CA,-87.6901931763,48.9259986877,GRAVEL RIVER NEAR CAVERS,02AE001,647.490690872587
168,CA,-72.21166992,48.89944077,MISTASSIBI (RIVIERE),02RD002,8674.21968250044
169,CA,-72.26361084,48.88777924,MISTASSINI (RIVIERE) EN AMONT DE LA RIVIERE MISTASSIBI,02RD003,9715.33630176864
171,CA,-64.6986084,48.97972107,DARTMOUTH (RIVIERE) EN AMONT DU RUISSEAU DU PAS DE DAME,01BH005,635.008623611228
174,CA,-88.3768615723,48.9042205811,BLACK STURGEON RIVER AT HIGHWAY NO. 17,02AC002,2698.31966344405
175,CA,-72.0477829,48.81417084,PERIBONCA (PETITE RIVIERE),02RC011,1014.98132461026
177,CA,-98.9829406738,49.0887718201,CYPRESS CREEK NEAR CLEARWATER,05OB010,392.965566121502
180,CA,-64.9211120605,48.8066711426,"YORK (RIVIERE) A 1,4 KM EN AVAL DU RUISSEAU DINNER ISLAND",01BH010,663.374315775
181,CA,-99.3371887207,49.121421814,BADGER CREEK NEAR CARTWRIGHT,05OA007,1555.00942606894
182,CA,-86.2966079712,48.7740783691,PIC RIVER NEAR MARATHON,02BB003,3753.1284776841
183,CA,-66.4866714478,49.0588912964,"SAINTE-ANNE (RIVIERE) A 9,7 KM EN AMONT DU PONT-ROUTE 132",02QC009,786.318003954483
184,CA,-54.2225608826,48.8073883057,MIDDLE BROOK NEAR GAMBO,02YR001,265.443138381545
185,CA,-98.4537887573,49.0004005432,MOWBRAY CREEK NEAR MOWBRAY,05OB021,271.530281524649
186,CA,-88.5346069336,48.8216896057,WOLF RIVER AT HIGHWAY NO. 17,02AC001,609.754092553125
187,CA,-91.58,48.75,ATIKOKAN RIVER AT ATIKOKAN,05PB018,319.785157970822
191,CA,-98.6035003662,49.0203094482,SNOWFLAKE CREEK NEAR SNOWFLAKE,05OB016,892.579953667379
192,CA,-58.36264038,48.57582855,HARRYS RIVER BELOW HIGHWAY BRIDGE,02YJ001,636.787353510345
194,CA,-89.24,48.56,CURRENT RIVER AT STEPSTONE,02AB021,409.448511197552
195,CA,-53.9788894653,48.6077194214,SOUTHWEST BROOK AT TERRA NOVA NATIONAL PARK,02YS003,38.254131702374
196,CA,-89.1750335693,48.5195617676,NORTH CURRENT RIVER NEAR THUNDER BAY,02AB014,101.174355328803
197,CA,-66.1680603,48.62833023,CASCAPEDIA (RIVIERE) EN AVAL DU RUISSEAU BERRY,01BG005,1684.5819685966
198,CA,-70.9741668701,48.4888916016,"VALIN (RIVIERE) A 3,5 KM DE L'EMBOUCHURE",02RH045,757.975032327114
199,CA,-57.93,48.62,LEWASEECHJEECH BROOK AT LITTLE GRAND LAKE,02YK002,479.020182622498
200,CA,-96.6845321655,49.0894203186,ROSEAU RIVER AT GARDENTON,05OD004,3625.50033040189
202,CA,-72.51389313,48.68360901,SAUMONS (RIVIERE AUX) PRES DE L'EMBOUCHURE,02RF009,591.611683053673
204,CA,-89.2186126709,48.4491996765,MCVICAR CREEK AT THUNDER BAY,02AB019,46.3608371902264
205,CA,-67.44999695,48.4916687,MATAPEDIA (RIVIERE) PRES DE AMQUI,01BD008,558.029510130193
206,CA,-55.52869034,48.8266716,GREAT RATTLING BROOK ABOVE TOTE RIVER CONFLUENCE,02YO008,774.304897608452
207,CA,-53.3016090393,48.3959197998,SALMON COVE RIVER NEAR CHAMPNEYS,02ZJ002,82.9178827319185
208,CA,-89.3065567017,48.3833885193,NEEBING RIVER NEAR THUNDER BAY,02AB008,200.503789299536
209,CA,-53.6739387512,48.3806686401,SOUTHERN BAY RIVER NEAR SOUTHERN BAY,02ZJ001,74.7207423371462
211,CA,-89.8098602295,48.2921104431,WHITEFISH RIVER AT NOLALU,02AB017,192.007822549562
212,CA,-54.85066986,49.01628113,GANDER RIVER AT BIG CHUTE,02YQ001,4360.76807406463
213,CA,-65.73500061,48.23083115,CASCAPEDIA (PETITE RIVIERE) A SAINT-EGAR,01BG008,1346.63095134029
214,CA,-55.4828109741,48.1687507629,CONNE RIVER AT OUTLET OF CONNE RIVER POND,02ZE004,90.7136307459214
215,CA,-65.55860901,48.18611145,BONAVENTURE (RIVIERE) EN AMONT DU RUISSEAU CREUX,01BG009,1918.68747435535
216,CA,-66.34944153,48.15721893,NOUVELLE (RIVIERE) AU PONT,01BF001,1138.35358120182
217,CA,-54.0496406555,48.2201690674,SHOAL HARBOUR RIVER NEAR CLARENVILLE,02ZJ003,98.3666633570163
218,CA,-54.2004203796,48.3969993591,NORTHWEST RIVER AT TERRA NOVA NATIONAL PARK,02YS006,640.278203511067
219,CA,-54.01525116,48.66275024,TERRA NOVA RIVER AT GLOVERTOWN,02YS005,2047.81720815749
222,CA,-57.83,48.24,LLOYDS RIVER BELOW KING GEORGE IV LAKE,02YN002,464.508734296835
224,CA,-83.2666702271,49.6139183044,MISSINAIBI RIVER AT MATTICE,04LJ001,9936.88675116007
226,CA,-54.28432846,47.94667053,PIPERS HOLE RIVER AT MOTHERS BROOK,02ZH001,748.536709514944
227,CA,-53.9486694336,47.9187507629,COME BY CHANCE RIVER NEAR GOOBIES,02ZH002,45.2009693303451
229,CA,-66.4906082153,47.9878883362,EEL RIVER NEAR DUNDEE,01BJ012,44.4479554302253
230,CA,-68.5561065674,48.4133300781,"RIMOUSKI (RIVIERE) A 3,7 KM EN AMONT DU PONT-ROUTE 132",02QA002,1609.08320034539
235,CA,-79.8793106079,47.8891410828,BLANCHE RIVER ABOVE ENGLEHART,02JC008,1787.32173309869
237,CA,-55.44021988,47.74682999,BAY DU NORD RIVER AT BIG FALLS,02ZF001,1186.84995148303
238,CA,-72.7366714478,47.7672195435,"CROCHE (RIVIERE) A 2,6 KM EN AVAL DU RUISSEAU CHANGY",02NE011,1572.10929597206
239,CA,-71.38,47.94,PIKAUBA (RIVIERE) EN AMONT DE LA RIVIERE APICA,02RH027,489.296061653941
240,CA,-66.02522278,47.89381027,JACQUET RIVER NEAR DURHAM CENTRE,01BJ003,501.270570531938
241,CA,-71.64527893,48.18222046,ECORCES (RIVIERE AUX) EN AMONT DU PONT-ROUTE 169,02RH035,1110.9896352468
243,CA,-65.1553878784,47.7056083679,RIVIERE CARAQUET AT BURNSVILLE,01BL002,188.137524565391
246,CA,-52.7484703064,47.564250946,LEARYS BROOK AT PRINCE PHILIP DRIVE,02ZM020,19.2619171121318
247,CA,-53.3080787659,47.5830612183,SHEARSTOWN BROOK AT SHEARSTOWN,02ZL004,30.0631485801991
248,CA,-65.7218093872,47.6083908081,MIDDLE RIVER NEAR BATHURST,01BJ010,220.045959437205
249,CA,-68.3568267822,47.4578285217,IROQUOIS RIVER AT MOULIN MORNEAULT,01AF009,183.745295250778
250,CA,-54.8530311584,47.4500312805,RATTLE BROOK NEAR BOAT HARBOUR,02ZG004,40.6423905245508
251,CA,-66.88707733,47.83246994,UPSALQUITCH RIVER AT UPSALQUITCH,01BE001,2266.56733957427
252,CA,-91.6511688232,48.0825614929,BASSWOOD RIVER NEAR WINTON,05PA012,3649.68066425087
253,CA,-71.99360657,48.375,METABETCHOUANE (RIVIERE) EN AMONT DE LA CENTRALE S.R.P.C.,02RG005,2216.56982522635
255,CA,-67.483078,47.66707993,RESTIGOUCHE RIVER BELOW KEDGWICK RIVER,01BC001,3175.38468820429
256,CA,-53.1172218323,47.3546714783,SOUTH RIVER NEAR HOLYROOD,02ZM016,17.4901647100502
257,CA,-53.8387184143,47.2739715576,NORTHEAST RIVER NEAR PLACENTIA,02ZK002,93.7486210844022
259,CA,-53.568611145,47.2271118164,ROCKY RIVER NEAR COLINET,02ZK001,296.81798038835
260,CA,-67.92,47.25,GRANDE RIVIERE AT VIOLETTE BRIDGE,01AF007,323.559765466508
261,CA,-68.9569396973,47.2066116333,ST. FRANCIS RIVER AT OUTLET OF GLASIER LAKE,01AD003,1343.75962805749
262,CA,-54.0389213562,47.1813087463,LITTLE BARACHOIS RIVER NEAR PLACENTIA,02ZK003,37.7379176301254
263,CA,-65.83650208,47.09474945,NORTHWEST MIRAMICHI RIVER AT TROUT BROOK,01BQ001,1027.1626885283
264,CA,-53.7317810059,47.1218299866,LITTLE SALMONIER RIVER NEAR NORTH HARBOUR,02ZK004,107.623664343712
265,CA,-75.7536087,47.08361053,GATINEAU (RIVIERE) AUX RAPIDES CEIZUR,02LG005,7018.55953225414
266,CA,-84.4307174683,47.0625305176,NORBERG CREEK (SITE A) ABOVE BATCHAWANA RIVER,02BF005,10.5469255284055
268,CA,-84.5155563354,47.003528595,BATCHAWANA RIVER NEAR BATCHAWANA,02BF001,1292.50135509003
269,CA,-69.95806122,47.38111115,OUELLE (RIVIERE) PRES DE SAINT-GABRIEL-DE-KAMOURASKA,02PG022,798.702539509899
270,CA,-71.85443878,46.97166824,SAINTE-ANNE (RIVIERE) (BRAS DU NORD DE LA) EN AMONT,02PB006,694.039692895738
271,CA,-83.4168624878,46.9684181213,AUBINADONG RIVER ABOVE SESABIC CREEK,02CB003,1371.27442952365
272,CA,-71.1513900757,46.8941688538,"MONTMORENCY (RIVIERE) A 0,6 KM EN AVAL DU BARRAGE DES MARCHES NATURELLES",02PD002,864.574510587732
273,CA,-80.46324921,46.97142029,STURGEON RIVER AT UPPER GOOSE FALLS,02DC012,1236.81167862244
274,CA,-55.7761917114,46.8778114319,SALMONIER RIVER NEAR LAMALINE,02ZG003,116.820021420009
275,CA,-65.90738678,46.93597031,LITTLE SOUTHWEST MIRAMICHI RIVER AT LYTTLETON,01BP001,1298.80177544239
276,CA,-83.9718093872,46.8609390259,GOULAIS RIVER NEAR SEARCHMONT,02BF002,1135.54624084291
278,CA,-66.1901092529,46.8565597534,CATAMARAN BROOK AT REPAP ROAD BRIDGE,01BP002,24.7144585239124
281,CA,-64.18699646,46.7441101074,CARRUTHERS BROOK NEAR ST. ANTHONY,01CA003,48.948606137982
282,CA,-71.6888885498,46.6958312988,AUX POMMES  (RIVIERE) A 1.6KM EN AVAL DE LA NOIRE,02PC019,103.163961335778
284,CA,-68.5827789307,47.2374992371,FISH RIVER NEAR FORT KENT,01AE001,2249.66480852013
285,CA,-81.0092468262,46.6854400635,VERMILION RIVER NEAR VAL CARON,02CF011,735.306958634694
288,CA,-70.9605331421,46.7075309753,BOYER SUD (RIVIERE) AU PONT-ROUTE DU RANG GRANDE GRILLADE,02PH012,60.3268071692092
290,CA,-72.4047164917,46.5836105347,"BATISCAN (RIVIERE) A 3,4 KM EN AVAL DE LA RIVIERE DES ENVIES",02PA007,4268.49477823714
291,CA,-81.0329666138,46.610168457,WHITSON RIVER AT VAL CARON,02CF008,186.798949197158
293,CA,-84.4651794434,46.5158882141,BIG CARP RIVER NEAR SAULT STE. MARIE,02BF004,48.7685296232102
294,CA,-73.91416931,46.68582916,MATAWIN (RIVIERE) A SAINT-MICHEL-DES-SAINTS,02NF003,1389.12186791674
295,CA,-81.0984420776,46.4273109436,JUNCTION CREEK BELOW KELLEY LAKE,02CF012,210.324406074242
296,CA,-71.3388900757,46.5402793884,"BRAS D'HENRI (RIVIERE) A 2,3 KM DE LA BEAURIVAGE",02PJ034,149.93861034891
297,CA,-74.503326416,46.3747215271,"SAINT-LOUIS (RUISSEAU) A 0,3 KM DE LA RIVIERE DU DIABLE",02LC043,38.712839121621
298,CA,-67.7384414673,46.4383583069,BIG PRESQUE ISLE STREAM AT TRACEY MILLS,01AJ004,490.603448031096
300,CA,-73.6519393921,46.3394393921,NOIRE (RIVIERE) A SAINTE EMELIE DE L'ENERGIE,02OB032,189.894230941889
303,CA,-79.4483566284,46.3117790222,CHIPPEWA CREEK AT NORTH BAY,02DD014,31.5104724313882
304,CA,-65.0649414063,46.443939209,COAL BRANCH RIVER AT BEERSVILLE,01BS001,180.788202581187
305,CA,-71.28861237,46.65916824,BEAURIVAGE (RIVIERE) A SAINTE-ETIENNE,02PJ007,597.748290154944
306,CA,-63.3510818481,46.2313919067,WEST RIVER AT RIVERDALE,01CC005,70.6782272971843
307,CA,-65.7227478,46.29072189,SALMON RIVER AT CASTAWAY,01AN002,1017.86630523958
308,CA,-79.395111084,46.2634391785,LA VASE RIVER AT NORTH BAY,02DD013,64.9139647820648
309,CA,-67.47,46.34,BECAGUIMEC STREAM AT COLDSTREAM,01AJ010,349.131786603614
310,CA,-65.8256073,46.73600006,SOUTHWEST MIRAMICHI RIVER AT BLACKVILLE,01BO001,5107.54212906106
311,CA,-70.6397171,46.16416931,FAMINE (RIVIERE) A SAINT-GEORGES,02PJ030,695.663846731105
312,CA,-66.61131287,46.12591934,NASHWAAK RIVER AT DURHAM BRIDGE,01AL002,1466.87038979032
313,CA,-60.0046691895,46.1178894043,MACASKILLS BROOK NEAR BIRCH GROVE,01FJ002,17.4016758046271
314,CA,-74.1219406128,46.09582901,DONCASTER (RIVIERE) AU LAC ELEVE,02LC027,105.929545073944
315,CA,-67.2396087646,46.0487785339,NACKAWIC STREAM NEAR TEMPERANCE VALE,01AK007,246.885755635226
317,CA,-61.14,46.22,SOUTHWEST MARGAREE RIVER NEAR UPPER MARGAREE,01FB003,358.494048337133
318,CA,-68.5958328247,47.2580604553,SAINT JOHN RIVER AT FORT KENT,01AD002,11098.1533796962
319,CA,-71.4475021362,46.0441703796,BECANCOUR (RIVIERE)  A 5.1 KM EN AVAL DU RUISSEAU SALABERRY,02PL009,226.919032276721
320,CA,-65.36638641,46.07236099,CANAAN RIVER AT EAST CANAAN,01AP002,649.836506631901
321,CA,-67.7279434204,46.2162208557,MEDUXNEKEAG RIVER NEAR BELLEVILLE,01AJ003,1213.76698318678
322,CA,-75.0227813721,45.8833312988,"SUFFOLK (RUISSEAU) A 0,2 KM EN AMONT DU PONT-ROUTE A CHENEVILLE",02LD006,62.2994630700521
323,CA,-71.4513931274,46.3061103821,"BECANCOUR (RIVIERE) A 2,1 KM EN AMONT DE LA RIVIERE PALMER",02PL005,694.269080387519
326,CA,-64.8779983521,45.9594993591,TURTLE CREEK AT TURTLE CREEK,01BU003,130.921118707073
327,CA,-76.06944275,46.07749939,PICANOC (RIVIERE) PRES DE WRIGHT,02LH004,1275.75109858091
329,CA,-72.306388855,46.056388855,"NICOLET (RIVIERE) A 5,8 KM EN AVAL DE LA RIVIERE BULSTRODE",02OD003,1549.84915067082
330,CA,-73.49305725,45.84638977,ACHIGAN (RIVIERE DE L') A L'EPIPHANIE,02OB037,629.346154062713
332,CA,-67.3203582764,45.9435310364,SHOGOMOC STREAM NEAR TRANS CANADA HIGHWAY,01AK001,233.164366270743
333,CA,-79.3087921143,45.7037696838,NORTH MAGNETAWAN RIVER ABOVE PICKEREL LAKE,02EA010,146.71241575893
335,CA,-61.2861099243,45.720249176,RIVER INHABITANTS AT GLENORA,01FA001,194.308682762741
336,CA,-72.5111083984,45.8766708374,SAINT-GERMAIN (RIVIERE) AU PONT-ROUTE 122 A DRUMMONDVILLE,02OF020,271.283479064354
339,CA,-65.6016922,45.70138931,KENNEBECASIS RIVER AT APOHAQUI,01AP004,1104.65861949472
340,CA,-65.0159683228,45.5585594177,POINT WOLFE RIVER AT FUNDY NATIONAL PARK,01BV006,136.167816859805
343,CA,-66.68289185,45.67377853,NORTH BRANCH OROMOCTO RIVER AT TRACY,01AM001,557.32802584317
344,CA,-66.3189697266,45.5034408569,NEREPIS RIVER NEAR FOWLERS CORNER,01AP006,293.766729138302
345,CA,-64.4506912231,45.5868110657,KELLEY RIVER (MILL CREEK) AT EIGHT MILE FORD,01DL001,65.5747367748619
347,CA,-63.5979995728,45.4382209778,GREAT VILLAGE RIVER NEAR SCRABBLE HILL,01DJ005,93.6838346357904
349,CA,-62.7801895142,45.4973907471,MIDDLE RIVER OF PICTOU AT ROCKLIN,01DP004,93.1348990384839
350,CA,-61.9036407471,45.5597190857,SOUTH RIVER AT ST. ANDREWS,01DR001,181.156242022925
352,CA,-72.6222229004,45.4158287048,YAMASKA NORD (RIVIERE) A VAL-SHEFFORD,02OG007,135.385621570542
353,CA,-78.9893875122,45.3119697571,OXTONGUE RIVER NEAR DWIGHT,02EB014,563.319050960597
354,CA,-65.8492202759,45.3065795898,BLACK RIVER AT GARNET SETTLEMENT,01BV004,40.1255531588138
355,CA,-73.19,45.49,HURONS (RIVIERE DES) EN AVAL DU RUISSEAU SAINT-LOUIS-2,02OJ024,298.24218298324
357,CA,-74.6438293457,45.3270797729,RIVIERE DELISLE NEAR ALEXANDRIA,02MC028,83.7630393197414
358,CA,-71.3866729736,45.5805587769,"SAUMON (RIVIERE AU) A 1,9 KM EN AMONT DE LA MOFFAT",02OE032,743.00950961837
359,CA,-76.1986694336,45.4175796509,CARP RIVER NEAR KINBURN,02KF011,261.060503394992
360,CA,-71.6552810669,45.4672203064,EATON (RIVIERE) PRES DE LA RIVIERE SAINT-FRANCOIS-3,02OE027,646.78154238142
361,CA,-74.4938278198,45.2733612061,RIVIERE BEAUDETTE NEAR GLEN NEVIS,02MC026,134.565513166888
362,CA,-66.4682769775,45.1697807312,LEPREAU RIVER AT LEPREAU,01AQ001,237.331058906001
363,CA,-61.97991943,45.17438889,ST. MARYS RIVER AT STILLWATER,01EO001,1346.37522577533
365,CA,-75.104637146,45.191608429,PAYNE RIVER NEAR BERWICK,02LB022,142.937748369869
368,CA,-77.846031189,45.0521392822,YORK RIVER NEAR BANCROFT,02KD002,836.144867915237
369,CA,-81.3363571167,45.0369682312,STOKES RIVER NEAR FERNDALE,02FA002,49.7445342329059
370,CA,-75.4127197266,45.2283287048,SOUTH CASTOR RIVER AT KENMORE,02LB020,188.901271611127
372,CA,-73.37,45.39,L'ACADIE (RIVIERE) PRES DE L'AUTOROUTE NO. 10,02OJ026,341.924971073272
373,CA,-75.7906112671,45.249420166,JOCK RIVER NEAR RICHMOND,02LA007,547.677285513627
374,CA,-76.9663314819,44.9684410095,BUCKSHOT CREEK NEAR PLEVNA,02KF017,146.657971486507
375,CA,-72.9944381714,45.1225013733,"BROCHETS (RIVIERE AUX) A 0,7 KM EN AVAL DU RUISSEAU GROAT",02OH008,394.242771239483
376,CA,-73.8450012207,45.1749992371,"ANGLAIS (RIVIERE DES) A 1,1 KM EN AVAL DU PONT-ROUTE A TRES-SAINT-SACREMENT",02OA057,677.128963607601
378,CA,-63.6638908386,44.851108551,BEAVERBANK RIVER NEAR KINSAC,01DG003,91.7564858701389
379,CA,-63.6604385376,44.7315292358,SACKVILLE RIVER AT BEDFORD,01EJ001,134.984173255429
381,CA,-75.544418335,44.842250824,SOUTH NATION RIVER AT SPENCERVILLE,02LB007,223.817281114798
382,CA,-79.778968811,44.72605896,HOGG CREEK NEAR VICTORIA HARBOUR,02ED017,59.3448162458201
383,CA,-75.6917800903,44.5856895447,BUELLS CREEK AT BROCKVILLE,02MB010,54.2027515084407
384,CA,-79.5782775879,44.7676696777,NORTH RIVER AT THE FALLS,02ED024,246.89315114659
385,CA,-79.2816085815,44.7136688232,BLACK RIVER NEAR WASHAGO,02EC002,1432.31634648733
386,CA,-77.3281326294,44.5495681763,SKOOTAMATTA RIVER NEAR ACTINOLITE,02HL004,682.985903631723
387,CA,-79.9037475586,44.6497802734,WYE RIVER NEAR WYEVALE,02ED013,129.073731023269
388,CA,-77.3696517944,44.5396003723,BLACK RIVER NEAR ACTINOLITE,02HL003,421.629666757352
389,CA,-79.6437530518,44.7071914673,COLDWATER RIVER AT COLDWATER,02ED007,173.618321941904
390,CA,-75.8052825928,44.5250015259,LYN CREEK NEAR LYN,02MB006,105.545149803132
392,CA,-77.6183624268,44.4997291565,MOIRA RIVER NEAR DELORO,02HL005,298.586930447777
393,CA,-65.0477828979,44.4618301392,MOOSE PIT BROOK AT TUPPER LAKE,01EE005,16.3708602995328
395,CA,-64.59118652,44.4474411,LAHAVE RIVER AT WEST NORTHFIELD,01EF001,1247.38730130844
397,CA,-80.6484985352,44.5701713562,BIGHEAD RIVER NEAR MEAFORD,02FB010,302.928704284573
398,CA,-80.93019104,44.5222511292,SYDENHAM RIVER NEAR OWEN SOUND,02FB007,178.204627094363
399,CA,-65.20507813,44.33314133,MERSEY RIVER BELOW GEORGE LAKE,01ED005,721.222584428527
400,CA,-77.4773101807,44.3383407593,RAWDON CREEK NEAR WEST HUNTINGDON,02HK008,90.6159261669496
401,CA,-78.8416137695,44.2896385193,MARIPOSA BROOK NEAR LITTLE BRITAIN,02HG001,183.478708958053
403,CA,-76.6125564575,44.2565612793,COLLINS CREEK NEAR KINGSTON,02HM005,163.834977961965
404,CA,-76.8492202759,44.2394294739,WILTON CREEK NEAR NAPANEE,02HM004,107.492545301464
405,CA,-78.3213882446,44.3027801514,JACKSON CREEK AT PETERBOROUGH,02HJ001,114.661644183962
406,CA,-80.0720291138,44.3073616028,MAD RIVER AT AVENING,02ED015,243.40787979477
407,CA,-80.362701416,44.1400299072,GRAND RIVER NEAR DUNDALK,02GA041,69.4704353788778
408,CA,-79.9599990845,44.2000312805,PINE RIVER NEAR EVERETT,02ED014,191.469691217736
409,CA,-79.0708312988,44.3970794678,BEAVER RIVER NEAR BEAVERTON,02EC011,297.188749142957
410,CA,-80.7419433594,44.0904693604,BEATTY SAUGEEN RIVER NEAR HOLSTEIN,02FC017,51.6253290349248
411,CA,-79.8966369629,44.1525001526,BOYNE RIVER AT EARL ROWE PARK,02ED102,218.569543407969
412,CA,-77.7870330811,44.1347503662,COLD CREEK AT ORLAND,02HK007,161.141173881892
413,CA,-81.7257766724,44.094669342,PINE RIVER AT LURGAN,02FD001,154.428802395292
414,CA,-79.4895629883,44.0949211121,HOLLAND RIVER EAST BRANCH AT HOLLAND LANDING,02EC009,173.879863698272
415,CA,-78.3281936646,43.990940094,GANARASKA RIVER ABOVE DALE,02HD012,239.690963895573
416,CA,-79.6856384277,44.0121383667,SCHOMBERG RIVER NEAR SCHOMBERG,02EC010,44.5012974153435
417,CA,-79.9698867798,44.0247497559,NOTTAWASAGA RIVER AT HOCKLEY,02ED026,176.53280987391
418,CA,-78.618812561,43.9302215576,WILMOT CREEK NEAR NEWCASTLE,02HD009,81.4568562018204
419,CA,-78.8915328979,43.9303092957,OSHAWA CREEK AT OSHAWA,02HD008,92.0833244427155
420,CA,-78.702003479,43.9214706421,BOWMANVILLE CREEK AT BOWMANVILLE,02HD006,79.8239806665006
421,CA,-81.0192489624,44.1133918762,CARRICK CREEK NEAR CARLSRUHE,02FC011,158.578072143092
422,CA,-79.1795272827,43.9157485962,WEST DUFFINS CREEK ABOVE GREEN RIVER,02HC038,60.223629141455
424,CA,-79.2162780762,43.9078903198,LITTLE ROUGE CREEK NEAR LOCUST HILL,02HC028,85.1890714136713
425,CA,-79.61277771,43.9027786255,EAST HUMBER RIVER AT KING CREEK,02HC032,95.2895096791172
426,CA,-79.0592803955,43.8912811279,DUFFINS CREEK ABOVE PICKERING,02HC019,87.6625032409821
427,CA,-78.8249435425,43.8888587952,HARMONY CREEK AT OSHAWA,02HD013,44.3073234136372
428,CA,-78.9603271484,43.8754997253,LYNDE CREEK NEAR WHITBY,02HC018,100.497911745611
429,CA,-79.8229980469,43.9285011292,HUMBER RIVER NEAR PALGRAVE,02HC047,159.376904276337
430,CA,-80.8926086426,43.9038085938,MAITLAND RIVER NEAR HARRISTON,02FE011,114.933896186155
431,CA,-65.37,43.84,ROSEWAY RIVER AT LOWER OHIO,01EC001,497.758504439427
434,CA,-79.6789398193,43.7583618164,WEST HUMBER RIVER AT HIGHWAY NO. 7,02HC031,150.433966928223
435,CA,-79.1914672852,43.7781906128,HIGHLAND CREEK NEAR WEST HILL,02HC013,88.6650100934089
436,CA,-81.4631881714,43.7603302002,BLYTH BROOK BELOW BLYTH,02FE014,77.7379599347562
437,CA,-79.5196914673,43.6473617554,MIMICO CREEK AT ISLINGTON,02HC033,64.4849562087364
438,CA,-79.5563278198,43.6017494202,ETOBICOKE CREEK BELOW QUEEN ELIZABETH HIGHWAY,02HC030,186.529870940017
440,CA,-79.7767791748,43.499168396,EAST SIXTEEN MILE CREEK NEAR OMAGH,02HB004,189.128316510975
441,CA,-80.83,43.48,NITH RIVER ABOVE NITHBURG,02GA038,307.424721260576
442,CA,-81.59,43.55,BAYFIELD RIVER NEAR VARNA,02FF007,463.436429692902
444,CA,-79.8690032959,43.3006401062,GRINDSTONE CREEK NEAR ALDERSHOT,02HB012,73.4472863278277
446,CA,-80.6918563843,43.2153091431,THAMES RIVER AT INNERKIP,02GD021,143.052671370684
447,CA,-81.2368087769,43.2204704285,FISH CREEK NEAR PROSPECT HILL,02GD010,148.987964103255
449,CA,-79.7738876343,43.2409706116,REDHILL CREEK AT HAMILTON,02HA014,58.7366440255392
450,CA,-81.6315078735,43.1641311646,PARKHILL CREEK ABOVE PARKHILL RESERVOIR,02FF008,111.843725544085
451,CA,-79.566192627,43.1156387329,TWENTY MILE CREEK ABOVE SMITHVILLE,02HA020,162.671134475772
452,CA,-81.7318267822,43.1607513428,SOUTH PARKHILL CREEK NEAR PARKHILL,02FF004,43.1436440773115
458,CA,-81.6271362305,42.95885849,SYDENHAM RIVER AT STRATHROY,02GG005,177.919898412709
459,CA,-82.1191101074,42.9058303833,BEAR CREEK NEAR PETROLIA,02GG006,253.956008732172
460,CA,-81.35131073,42.9341087341,DINGMAN CREEK BELOW LAMBETH,02GE005,147.482010132903
461,CA,-80.72,42.86,BIG OTTER CREEK AT TILLSONBURG,02GC010,318.441014849251
462,CA,-81.1347198486,42.8351898193,KETTLE CREEK ABOVE ST. THOMAS,02GC029,134.570376633115
463,CA,-81.8517227173,42.8308105469,SYDENHAM RIVER NEAR ALVINSTON,02GG002,523.473418556084
464,CA,-81.2675018311,42.7873916626,DODD CREEK BELOW PAYNES MILLS,02GC031,85.5676656669899
465,CA,-80.982673645,42.7737503052,CATFISH CREEK AT AYLMER,02GC030,126.49324228038
466,CA,-80.5484390259,42.6533584595,VENISON CREEK NEAR WALSINGHAM,02GC021,82.3977599479435
467,CA,-82.0950622559,42.3834991455,MCGREGOR CREEK NEAR CHATHAM,02GE007,201.338962491055
468,CA,-82.9284973145,42.3098602295,LITTLE RIVER AT WINDSOR,02GH011,68.0944584055355
469,CA,-82.6291427612,42.2114982605,RUSCOM RIVER NEAR RUSCOM STATION,02GH002,110.821000514615
470,CA,-83.0188903809,42.1589698792,CANARD RIVER NEAR LUKERVILLE,02GH003,194.050853745258
471,CA,-133.493103027,68.7361907959,TRAIL VALLEY CREEK NEAR INUVIK,10ND002,62.057376809312
472,CA,-133.591995239,68.86743927,HANS CREEK ABOVE ESKIMO LAKES,10ND004,292.049707375139
473,CA,-133.492324829,68.0872802734,CARIBOU CREEK ABOVE HIGHWAY NO. 8 (DEMPSTER HIGHWAY),10LC007,613.196829504717
474,CA,-139.696395874,67.634437561,OLD CROW RIVER NEAR THE MOUTH,09FC001,12661.3638635071
475,CA,-133.862640381,67.7535629272,RENGLENG RIVER BELOW HIGHWAY NO. 8 (DEMPSTER HIGHWAY),10LC003,991.024829786269
477,CA,-111.90222168,67.6350021362,TREE RIVER NEAR THE MOUTH,10QA001,5721.89519228873
478,CA,-136.709213257,66.4434661865,EAGLE RIVER AT DEMPSTER HIGHWAY BRIDGE,09FB002,1714.99586322718
479,CA,-113.991386414,66.2536087036,FAIRY LAKE RIVER NEAR OUTLET OF NAPAKTULIK LAKE,10PC005,6352.83348850005
481,CA,-126.877471924,65.3238601685,BOSWORTH CREEK NEAR NORMAN WELLS,10KA007,103.885288185612
482,CA,-138.27583313,64.9013900757,BLACKSTONE RIVER NEAR CHAPMAN LAKE AIRSTRIP,10MA003,1171.81368286776
484,CA,-106.085830688,65.1872177124,BACK RIVER BELOW BEECHY LAKE,10RA001,18933.3853759804
485,CA,-133.089645386,66.787437439,ARCTIC RED RIVER NEAR THE MOUTH,10LA002,18696.7106307609
486,CA,-127.683357239,65.2953262329,CARCAJOU RIVER BELOW IMPERIAL RIVER,10KB001,7394.91369488251
487,CA,-136.03805542,65.8925018311,PEEL RIVER ABOVE CANYON CREEK,10MA001,23499.1171498284
488,CA,-114.007781982,65.4158325195,COPPERMINE RIVER AT OUTLET OF POINT LAKE,10PB001,20240.671051696
489,CA,-138.596282959,64.0019683838,NORTH KLONDIKE RIVER NEAR THE MOUTH,09EA004,1086.25727302356
490,CA,-134.139175415,64.0149993896,BEAVER RIVER BELOW MATSON CREEK,09DB001,4749.48547572363
491,CA,-115.433311462,63.9741096497,SNARE RIVER BELOW GHOST RIVER,07SA002,10192.4700655167
492,CA,-104.490562439,65.010559082,BAILLIE RIVER NEAR THE MOUTH,10RA002,14451.4278545233
493,CA,-139.407775879,64.0427780151,KLONDIKE RIVER ABOVE BONANZA CREEK,09EA003,6992.29095763695
494,CA,-117.758056641,65.5983276367,CAMSELL RIVER AT OUTLET OF CLUT LAKE,10JA002,32216.9361228656
495,CA,-137.269439697,63.6111106873,MCQUESTEN RIVER NEAR THE MOUTH,09DD004,4806.29001452971
496,CA,-139.629577637,63.7700004578,INDIAN RIVER ABOVE THE MOUTH,09EB003,2212.8004159023
497,CA,-123.550918579,65.1284179688,GREAT BEAR RIVER AT OUTLET OF GREAT BEAR LAKE,10JC003,112034.560202795
499,CA,-105.154441833,63.5911102295,HANBURY RIVER ABOVE HOARE LAKE,06JB001,5831.59209718986
502,CA,-130.541671753,62.9249992371,SOUTH MACMILLAN RIVER AT KILOMETRE 407 CANOL ROAD,09BB001,1004.6060284818
503,CA,-116.974639893,63.1076889038,LA MARTRE RIVER BELOW OUTLET OF LAC LA MARTRE,07TA001,13814.0213453004
504,CA,-108.466026306,62.8941383362,LOCKHART RIVER AT OUTLET OF ARTILLERY LAKE,07RD001,26802.8109710856
505,CA,-113.523078918,62.4908599854,CAMERON RIVER BELOW REID LAKE,07SB010,3635.87809291617
506,CA,-123.433059692,62.4797210693,ROOT RIVER NEAR THE MOUTH,10GA001,9788.30835773527
507,CA,-125.296562195,63.923500061,REDSTONE RIVER 63 KM ABOVE THE MOUTH,10HB005,15459.1647951379
508,CA,-122.899246216,62.6500587463,WILLOWLAKE RIVER ABOVE METAHDALI CREEK,10GB006,21255.3096866807
510,CA,-132.407165527,61.9887809753,ROSS RIVER AT ROSS RIVER,09BA001,7491.52469073345
511,CA,-125.797027588,61.6361083984,SOUTH NAHANNI RIVER ABOVE VIRGINIA FALLS,10EB001,14603.5471793621
513,CA,-121.611831665,61.8939399719,MARTIN RIVER AT HIGHWAY NO. 1,10GC003,2140.24676150146
514,CA,-122.09425354,61.3335800171,BIRCH RIVER AT HIGHWAY NO. 7,10ED003,567.604088846716
515,CA,-139.167922974,61.3460006714,DUKE RIVER NEAR THE MOUTH,09CA004,650.199090727516
517,CA,-136.280273438,62.0511703491,NORDENSKIOLD RIVER BELOW ROWLINSON CREEK,09AH004,6489.5281578469
518,CA,-121.238189697,61.4455299377,JEAN-MARIE RIVER AT HIGHWAY NO. 1,10FB005,1276.65127192459
519,CA,-125.410751343,61.5299682617,FLAT RIVER NEAR THE MOUTH,10EA003,8480.59963470224
522,CA,-129.118896484,60.4738883972,FRANCES RIVER NEAR WATSON LAKE,10AB001,12890.2779825261
523,CA,-135.486251831,60.7257499695,IBEX RIVER NEAR WHITEHORSE,09AC007,607.332431798593
525,CA,-137.977752686,60.118309021,ALSEK RIVER ABOVE BATES RIVER,08AB001,14949.7319202331
526,CA,-119.843063354,61.1398086548,TROUT RIVER AT HIGHWAY NO. 1,10FA002,9061.02802561561
527,CA,-136.927642822,60.1134414673,TAKHANNE RIVER AT KM 167 HAINES HIGHWAY,08AC001,381.240238339818
528,CA,-134.883605957,60.1277809143,WHEATON RIVER NEAR CARCROSS,09AA012,839.26063423299
532,CA,-132.144439697,60.0069389343,MORELY RIVER AT KM 1251 ALASKA HIGHWAY,09AE006,1593.98147860791
535,CA,-129.702774048,60.15832901,BIG CREEK AT KM 1084.8 ALASKA HIGHWAY,10AA005,1010.59390093307
536,CA,-137.084640503,60.1189689636,TATSHENSHINI RIVER NEAR DALTON POST,08AC002,1357.09137905591
539,CA,-134.3325043,59.94778061,TUTSHI RIVER AT OUTLET OF TUTSHI LAKE,09AA013,932.156911702911
540,CA,-126.480560303,59.5533294678,SMITH RIVER NEAR THE MOUTH,10BE013,3557.25668573567
542,CA,-126.227500916,59.4541702271,TEETER CREEK NEAR THE MOUTH,10BE009,209.009144721178
543,CA,-131.7677765,59.93056107,SWIFT RIVER NEAR SWIFT RIVER,09AE003,3570.24315755689
547,CA,-117.196487427,59.5807991028,STEEN RIVER NEAR STEEN RIVER,07OB004,2545.05926405912
549,CA,-129.8230591,59.11888885,COTTONWOOD RIVER ABOVE BASS CREEK,10AC005,843.944081873271
551,CA,-123.318893433,58.8923912048,RASPBERRY CREEK NEAR THE MOUTH,10CD003,286.866133398778
552,CA,-133.8144226,59.5953598,ATLIN RIVER NEAR ATLIN,09AA006,5299.67534507158
553,CA,-125.9402466,59.33597183,TROUT RIVER AT KILOMETRE 783.7 ALASKA HIGHWAY,10BE007,1216.37924855184
554,CA,-116.256141663,58.4642601013,PONTON RIVER ABOVE BOYER RIVER,07JF003,2503.77502128038
557,CA,-125.3826065,58.85496902,TOAD RIVER ABOVE NONDA CREEK,10BE004,2554.06076823939
558,CA,-118.491043091,58.5914382935,SOUSA CREEK NEAR HIGH LEVEL,07OA001,815.181992898406
560,CA,-130.824173,58.07221985,TUYA RIVER NEAR TELEGRAPH CREEK,08CD001,3619.36892716185
561,CA,-122.715583801,58.1059989929,ADSETT CREEK AT KILOMETRE 386.0 ALASKA HIGHWAY,10CD005,111.764803395739
562,CA,-133.699996948,58.538608551,TAKU RIVER NEAR JUNEAU,08BB005,16901.8303499266
563,CA,-115.748809814,58.1928596497,JACKPINE CREEK AT HIGHWAY NO. 88,07JD003,566.165828790635
564,CA,-122.72,58.03,BOUGIE CREEK AT KILOMETRE 368 ALASKA HIGHWAY,10CD004,335.411296533612
567,CA,-116.2640305,58.44908905,BOYER RIVER NEAR FORT VERMILION,07JF002,6869.00356144381
568,CA,-104.6083298,58.3861084,WATERFOUND RIVER BELOW THERIAU LAKE,07LB002,2879.07728139116
569,CA,-117.627853394,57.7457008362,KEG RIVER AT HIGHWAY NO. 35,07HF002,675.614817781691
570,CA,-108.1750031,58.96667099,MACFARLANE RIVER AT OUTLET OF DAVY LAKE,07MB001,8663.30865209705
571,CA,-113.065223694,58.3249015808,BIRCH RIVER BELOW ALICE CREEK,07KE001,11177.1422958185
572,CA,-111.240386963,58.3603591919,RICHARDSON RIVER NEAR THE MOUTH,07DD002,2693.58654940416
573,CA,-121.4638901,58.27082825,FONTAS RIVER NEAR THE MOUTH,10CA001,7511.76201248264
574,CA,-122.6591721,58.78833008,MUSKWA RIVER NEAR FORT NELSON,10CD001,19490.2400998234
576,CA,-124.8988876,57.1911087,AKIE RIVER NEAR THE 760 M CONTOUR,07EA007,1680.75907229507
579,CA,-118.334098816,58.5970802307,CHINCHAGA RIVER NEAR HIGH LEVEL,07OC001,10389.1417779637
580,CA,-104.9972229,57.47777939,WHEELER RIVER BELOW RUSSELL LAKE,06DA005,2871.57574990992
581,CA,-111.20262146,57.6510887146,FIREBAG RIVER NEAR THE MOUTH,07DC001,6515.15854262111
583,CA,-111.570137,57.19120026,MUSKEG RIVER NEAR FORT MACKAY,07DA008,1368.67383915562
584,CA,-122.6941681,57.23416901,SIKANNI CHIEF RIVER NEAR FORT NELSON,10CB001,2214.14335963921
585,CA,-111.406837463,56.999458313,STEEPBANK RIVER NEAR FORT MCMURRAY,07DA006,1310.36895269144
586,CA,-117.618423462,56.9200401306,NOTIKEWIN RIVER AT MANNING,07HC001,4663.56603777717
589,CA,-125.1029968,56.72999954,INGENIKA RIVER ABOVE SWANNELL RIVER,07EA004,4148.43070090327
590,CA,-111.695083618,57.2103691101,MACKAY RIVER NEAR FORT MACKAY,07DB001,5017.18856454713
591,CA,-121.2208328,56.67721939,BLUEBERRY RIVER BELOW AITKEN CREEK,07FC003,1776.29434970071
592,CA,-110.928657532,56.663608551,CLEARWATER RIVER ABOVE CHRISTINA RIVER,07CD005,12525.7132157242
593,CA,-122.243217468,56.5089416504,HALFWAY RIVER ABOVE GRAHAM RIVER,07FA003,3751.13253433448
594,CA,-119.134101868,56.4525909424,EUREKA RIVER NEAR WORSLEY,07FD013,805.824613513201
595,CA,-118.712043762,56.3833503723,MONTAGNEUSE RIVER NEAR HINES CREEK,07FD012,265.817003115735
596,CA,-120.155143738,56.3342208862,ALCES RIVER AT 22ND BASE LINE,07FD004,310.188834825253
597,CA,-118.27,56.33,HINES CREEK ABOVE GERRY LAKE,07FD011,358.337443728352
598,CA,-115.240379333,56.5470199585,REDEARTH CREEK NEAR RED EARTH CREEK,07JC002,650.357926167894
599,CA,-119.680496216,56.3078308105,CLEAR RIVER NEAR BEAR CANYON,07FD009,2085.30017915898
600,CA,-120.6999969,56.27999878,BEATTON RIVER NEAR FORT ST. JOHN,07FC001,13739.2283781631
601,CA,-106.5611115,56.24443817,HAULTAIN RIVER ABOVE NORBERT RIVER,06BD001,3656.42130067476
602,CA,-122.3561096,56.45861053,GRAHAM RIVER ABOVE COLT CREEK,07FA005,2188.08272906715
603,CA,-116.433486938,56.4874992371,CADOTTE RIVER AT OUTLET CADOTTE LAKE,07HB001,988.290843462689
604,CA,-111.3563766,56.70896912,HANGINGSTONE RIVER AT FORT MCMURRAY,07CD004,846.089720063898
605,CA,-124.6433334,56.24388885,MESILINKA RIVER ABOVE GOPHERHOLE CREEK,07EC003,2949.00437377839
608,CA,-103.7094421,57.08889008,WATHAMAN RIVER BELOW WATHAMAN LAKE,06DC001,10684.4801346612
609,CA,-124.8013916,56.12667084,OSILINKA RIVER NEAR END LAKE,07EC004,1936.25371205407
610,CA,-110.917297363,55.8697891235,PONY CREEK NEAR CHARD,07CE003,259.639813272626
612,CA,-117.129890442,56.0556411743,HEART RIVER NEAR NAMPA,07HA003,1958.74028444069
613,CA,-127.6847229,55.71611023,SKEENA RIVER ABOVE BABINE RIVER,08EB005,12283.3730893493
614,CA,-121.3469391,56.09305954,MOBERLY RIVER NEAR FORT ST. JOHN,07FB008,1516.19041818191
615,CA,-117.259567261,55.6292991638,PEAVINE CREEK NEAR FALHER,07GH004,559.856704725967
616,CA,-116.1,55.61,SALT CREEK NEAR GROUARD,07BF009,411.757345846544
617,CA,-124.5674973,55.91611099,OMINECA RIVER ABOVE OSILINKA RIVER,07EC002,5442.47061118904
618,CA,-115.3891373,57.87462997,WABASCA RIVER AT HIGHWAY NO. 88,07JD002,36055.7354827271
619,CA,-118.7002335,55.64434814,SADDLE RIVER NEAR WOKING,07FD006,537.040860588111
620,CA,-112.15271759,55.6425094604,HOUSE RIVER AT HIGHWAY NO. 63,07CB002,815.543298085046
621,CA,-121.596809387,55.5377807617,DICKEBUSCH CREEK NEAR THE MOUTH,07FB004,85.6215254102307
622,CA,-114.814292908,55.4160614014,LILY CREEK NEAR SLAVE LAKE,07BG004,23.2724519683002
623,CA,-109.3855591,55.70972061,DILLON RIVER BELOW DILLON LAKE,06BA002,2339.10280985331
625,CA,-110.869033813,55.8371696472,CHRISTINA RIVER NEAR CHARD,07CE002,4494.61774203004
626,CA,-120.0294418,55.86471939,POUCE COUPE RIVER BELOW HENDERSON CREEK,07FD007,2865.99869705482
627,CA,-119.384063721,55.4001617432,BEAR RIVER NEAR VALHALLA CENTRE,07GE007,211.347813930263
628,CA,-127.620750427,55.2961082458,TWO MILE CREEK IN DISTRICT LOT 4834,08EE025,15.1922522748495
629,CA,-114.230789185,55.2554702759,DRIFTWOOD RIVER NEAR THE MOUTH,07BK007,2118.49670504765
630,CA,-129.0861053,55.26388931,NASS RIVER ABOVE SHUMAL CREEK,08DB001,18205.2392895979
631,CA,-114.775222778,55.2707901001,SAWRIDGE CREEK NEAR SLAVE LAKE,07BK009,244.202489486664
632,CA,-119.4372482,55.18927002,BEAVERLODGE RIVER NEAR BEAVERLODGE,07GD001,1600.81137320597
633,CA,-120.5625,55.9569397,KISKATINAW RIVER NEAR FARMINGTON,07FD001,3608.9879237723
637,CA,-121.6244431,55.54278183,SUKUNKA RIVER NEAR THE MOUTH,07FB003,2590.7435204983
638,CA,-120.94,55.09,FLATBED CREEK AT KILOMETRE 110 HERITAGE HIGHWAY,07FB009,474.591907372369
639,CA,-114.7562103,55.30487061,LESSER SLAVE RIVER AT SLAVE LAKE,07BK001,11523.1424111409
640,CA,-116.340156555,55.4177017212,EAST PRAIRIE RIVER NEAR ENILDA,07BF001,1426.5192518543
641,CA,-115.47000885,54.8026313782,SWAN RIVER NEAR SWAN HILLS,07BJ003,160.04807757185
642,CA,-119.701576233,55.0788192749,REDWILLOW RIVER NEAR RIO GRANDE,07GD004,1255.34794970871
643,CA,-111.856330872,55.0108985901,OWL RIVER BELOW PICHE RIVER,07CA013,3083.22742767542
644,CA,-113.079307556,54.6524887085,BABETTE CREEK NEAR COLINTON,07CA008,196.085690544883
645,CA,-108.0188904,55.39693832,CANOE RIVER NEAR BEAUVAL,06BB005,4771.04326062556
647,CA,-111.00227356,54.7127990723,WOLF RIVER AT OUTLET OF WOLF LAKE,06AB002,738.886743782163
649,CA,-127.123329163,54.6486091614,GOATHORN CREEK NEAR TELKWA,08EE008,122.905963701392
651,CA,-111.187591553,54.4674911499,SAND RIVER NEAR THE MOUTH,06AB001,4159.4871372124
652,CA,-122.6,54.53,CHUCHINKA CREEK NEAR THE MOUTH,07EE009,317.901719704364
653,CA,-121.2116013,55.71804047,PINE RIVER AT EAST PINE,07FB001,8899.36390528604
654,CA,-110.69,54.44,JACKFISH CREEK NEAR LA COREY,06AC001,500.452036359888
655,CA,-122.9047165,55.07806015,PARSNIP RIVER ABOVE MISINCHINKA RIVER,07EE007,4903.83378772783
656,CA,-109.842430115,54.5660209656,COLD RIVER AT OUTLET OF COLD LAKE,06AF001,6600.14473680249
657,CA,-112.906692505,54.587348938,FLAT CREEK NEAR BOYLE,07CA003,157.371432243701
658,CA,-112.777526855,54.8203697205,PINE CREEK NEAR GRASSLAND,07CA005,1048.30647030758
659,CA,-114.904823303,54.3649291992,FREEMAN RIVER NEAR FORT ASSINIBOINE,07AH001,1470.84313506791
661,CA,-118.963119507,54.5156898499,CUTBANK RIVER NEAR GRANDE PRAIRIE,07GB001,898.476265396775
662,CA,-117.1521606,54.74517822,IOSEGUN RIVER NEAR LITTLE SMOKY,07GG003,1803.76247472356
664,CA,-102.6355591,54.82778168,STURGEON-WEIR RIVER AT LEAF RAPIDS,05KG007,10822.6036918733
665,CA,-103.9416733,54.56111145,BALLANTYNE RIVER ABOVE BALLANTYNE BAY,05KF001,1859.66490361894
666,CA,-113.8488998,54.30820084,DAPP CREEK AT HIGHWAY NO. 44,07BC006,607.946501739918
667,CA,-117.2057037,54.75201035,WASKAHIGAN RIVER NEAR THE MOUTH,07GG001,1047.81344159373
668,CA,-123.0355606,54.99583054,PACK RIVER AT OUTLET OF MCLEOD LAKE,07EE010,3623.66968429541
670,CA,-115.778938293,54.2014389038,SAKWATAMAU RIVER NEAR WHITECOURT,07AH003,1149.80335581596
672,CA,-112.78,54.12,WASKATENAU CREEK NEAR WASKATENAU,05EC002,352.96846987053
673,CA,-126.6511078,54.39778137,BUCK CREEK AT THE MOUTH,08EE013,624.195802240805
674,CA,-128.690002441,54.136390686,LITTLE WEDEENE RIVER BELOW BOWBYES CREEK,08FF003,180.659028773936
675,CA,-112.014350891,54.4745407104,AMISK RIVER AT HIGHWAY NO. 36,06AA002,2302.31906312214
676,CA,-122.6780624,54.0961113,SALMON RIVER NEAR PRINCE GEORGE,08KC001,3987.32237315994
677,CA,-118.182327271,55.1403007507,SIMONETTE RIVER NEAR GOODWIN,07GF001,4317.21317785803
678,CA,-128.6903534,54.04858017,KITIMAT RIVER BELOW HIRSCH CREEK,08FF001,1827.29664609796
679,CA,-115.842330933,54.0325317383,GROAT CREEK NEAR WHITECOURT,07AG008,132.728146361201
681,CA,-115.02,53.95,LITTLE PADDLE RIVER NEAR MAYERTHORPE,07BB005,443.392787797785
682,CA,-110.92,53.89,ATIMOSWE CREEK NEAR ELK POINT,05ED002,365.175165559459
683,CA,-112.996017456,53.8965988159,REDWATER RIVER NEAR THE MOUTH,05EC005,1642.24104816695
685,CA,-104.6196365,53.86497116,WHITE GULL CREEK AT HIGHWAY NO. 106,05KE010,649.254575796057
686,CA,-117.1795578,54.7398605347,LITTLE SMOKY RIVER AT LITTLE SMOKY,07GG002,2998.66308778046
687,CA,-115.363876343,53.8593482971,PADDLE RIVER NEAR ANSELMO,07BB011,253.017767440587
688,CA,-125.0088882,54.00753021,STELLAKO RIVER AT GLENANNAN,08JB002,3896.57099054261
689,CA,-121.6687469,54.23117065,MCGREGOR RIVER AT LOWER CANYON,08KB003,4696.35217128777
690,CA,-127.4527817,53.93056107,NANIKA RIVER AT OUTLET OF KIDPRICE LAKE,08ED001,729.992067837303
692,CA,-118.816360474,53.9262008667,MUSKEG RIVER NEAR GRANDE CACHE,07GA002,701.245616922434
693,CA,-118.241157532,53.6786613464,LITTLE BERLAND RIVER AT HIGHWAY NO. 40,07AC008,100.945860757984
694,CA,-113.762466431,53.6553497314,STURGEON RIVER NEAR VILLENEUVE,05EA005,1823.43699190601
695,CA,-116.703308105,53.5665206909,SUNDANCE CREEK NEAR BICKERDIKE,07AF010,164.202649264381
696,CA,-127.537719727,53.6520805359,LAVENTIE CREEK NEAR THE MOUTH,08JA015,80.8909959807073
697,CA,-120.591392517,53.6816711426,MORKILL RIVER BELOW HELLROARING CREEK,08KA013,1263.56875934486
698,CA,-113.163612366,53.5994415283,POINTE-AUX-PINS CREEK NEAR ARDROSSAN,05EB902,97.7162314294304
699,CA,-114.859718323,53.5913887024,STURGEON RIVER NEAR MAGNOLIA BRIDGE,05EA010,125.349112364742
700,CA,-108.3944397,54.1361084,MEADOW RIVER BELOW MEADOW LAKE,06AD010,3353.84580085746
701,CA,-104.325828552,53.4813919067,KELSEY CREEK NEAR GARRICK,05KE007,182.972023232707
705,CA,-116.9633789,54.01327133,BERLAND RIVER NEAR THE MOUTH,07AC007,4581.67766509399
706,CA,-105.6108322,53.39389038,GARDEN RIVER NEAR HENRIBOURG,05GG010,887.246790989712
707,CA,-114.7631073,53.4058494568,TOMAHAWK CREEK NEAR TOMAHAWK,05DE009,99.9297835729704
708,CA,-120.22013855,53.4440612793,MCKALE RIVER NEAR 940 M CONTOUR,08KA009,254.172012659363
709,CA,-110.325660706,53.4424591064,STRETTON CREEK NEAR MARWAYNE,05EE005,66.0538833375812
712,CA,-132.21,53.61,YAKOUN RIVER NEAR PORT CLEMENTS,08OA002,463.534259218328
715,CA,-102.111938477,53.2566719055,PASQUIA RIVER AT HIGHWAY NO. 9,05KJ014,79.0050432036958
716,CA,-113.51651,53.41455078,BLACKMUD CREEK NEAR ELLERSLIE,05DF003,635.483228813054
718,CA,-119.161117554,53.9465103149,SMOKY RIVER ABOVE HELLS CREEK,07GA001,3825.26977460285
719,CA,-116.271843,53.59835052,WOLF CREEK AT HIGHWAY NO. 16A,07AG003,710.837401150718
721,CA,-109.2958298,53.24417114,BIG GULLY CREEK NEAR MAIDSTONE,05EF005,1371.87014313878
725,CA,-113.59,53.41,WHITEMUD CREEK NEAR ELLERSLIE,05DF006,291.1776345021
726,CA,-117.260887146,53.157459259,WAMPUS CREEK NEAR HINTON,07AF003,27.6924943146279
727,CA,-120.25,53.31,DORE RIVER NEAR MCBRIDE,08KA001,406.63307129553
728,CA,-113.690567017,53.2220306396,WEST WHITEMUD CREEK NEAR IRETON,05DF007,64.9925316099547
729,CA,-114.0520706,53.31148911,STRAWBERRY CREEK NEAR THE MOUTH,05DF004,590.513933949209
730,CA,-116.80619812,53.375919342,EMBARRAS RIVER NEAR WEALD,07AF014,649.218269964757
731,CA,-117.36,53.25,GREGG RIVER NEAR THE MOUTH,07AF015,385.747273885921
735,CA,-122.3730621,54.04555893,WILLOW RIVER ABOVE HAY CREEK,08KD006,2896.95602522852
736,CA,-106.3858337,53.25278091,SHELL BROOK NEAR SHELLBROOK,05GF001,2709.89457714075
739,CA,-108.1563873,52.97972107,CRYSTAL CREEK NEAR IFFLEY,05EG004,479.279199569289
740,CA,-102.32,53.03,OVERFLOWING RIVER NEAR HUDSON BAY,05LD003,349.730222849806
741,CA,-122.1028595,54.01694107,BOWRON RIVER BELOW BOX CANYON,08KD007,2832.69173713034
744,CA,-121.767471313,52.9149017334,LITTLE SWIFT RIVER AT THE MOUTH,08KE024,127.92735300918
746,CA,-117.2,53.08,MCLEOD RIVER NEAR CADOMIN,07AF013,331.414509121143
747,CA,-105.471107483,52.9588890076,CROMARTY CREEK NEAR BIRCH HILLS,05HH002,72.4456431379714
748,CA,-102.996940613,52.8169403076,PRAIRIE RIVER NEAR PRAIRIE RIVER,05LB010,292.714311736727
749,CA,-113.279953003,52.9591598511,WEILLER CREEK NEAR WETASKIWIN,05FA024,236.289668999403
750,CA,-107.128059387,52.7741699219,OSCAR CREEK NEAR KRYDOR,05GD002,234.264464206411
753,CA,-113.629089355,52.7850914001,MASKWA CREEK NO. 1 ABOVE BEARHILLS LAKE,05FA014,76.7625220863229
755,CA,-114.29,52.76,BLINDMAN RIVER NEAR BLUFFTON,05CC008,343.814573105163
756,CA,-118.107170105,52.8641204834,MIETTE RIVER NEAR JASPER,07AA001,651.823021793788
758,CA,-120.1409225,53.30171967,FRASER RIVER AT MCBRIDE,08KA005,5212.71819433683
759,CA,-114.146842957,52.7403793335,LLOYD CREEK NEAR BLUFFTON,05CC009,245.134288608498
762,CA,-104.239997864,52.8422203064,LEATHER RIVER NEAR STAR CITY,05KB006,183.871240664005
763,CA,-115.0110168,52.92990875,ROSE CREEK NEAR ALDER FLATS,05DE007,547.318109984687
764,CA,-104.08,52.97,DOGHIDE RIVER NEAR RUNCIMAN,05KB011,420.898953089615
765,CA,-108.78,52.76,CUT KNIFE CREEK NEAR CUT KNIFE,05FF003,417.578580349056
767,CA,-115.520263672,52.8199691772,NORDEGG RIVER AT SUNCHILD ROAD,05DD009,867.370398719433
768,CA,-119.0066681,52.98627853,FRASER RIVER AT RED PASS,08KA007,1250.1658204886
770,CA,-114.577667236,52.5737380981,BLOCK CREEK NEAR LEEDALE,05CC010,63.667026343359
773,CA,-104.0208282,53.13639069,CARROT RIVER NEAR ARMLEY,05KB003,4453.61383156423
774,CA,-126.521080017,52.4245605469,SALLOOMT RIVER NEAR HAGENSBORG,08FB004,156.550495824586
775,CA,-115.075782776,52.6638183594,BAPTISTE RIVER NEAR THE MOUTH,05DC012,1349.87138878033
777,CA,-111.310386658,52.7080001831,IRON CREEK NEAR HARDISTY,05FB002,3490.2800632427
778,CA,-113.195762634,52.4074707031,PARLBY CREEK AT ALIX,05CD007,509.144465164958
780,CA,-113.581413269,52.6632499695,BATTLE RIVER NEAR PONOKA,05FA001,1878.73986752076
781,CA,-101.086608887,52.370059967,BIRCH RIVER NEAR BIRCH RIVER,05LE010,139.172836108448
782,CA,-122.294639587,52.4262504578,SHERIDAN CREEK ABOVE MCLEESE LAKE,08MC045,92.1299337655763
784,CA,-113.362960815,52.3319091797,HAYNES CREEK NEAR HAYNES,05CD006,171.362619723245
785,CA,-112.138076782,52.3855514526,PAINTEARTH CREEK NEAR HALKIRK,05FC004,194.2867167883
787,CA,-114.344169617,52.3195610046,MEDICINE RIVER NEAR ECKVILLE,05CC007,1869.00477700301
789,CA,-111.730102539,52.2591896057,YOUNG CREEK NEAR CASTOR,05FC007,65.3327889741848
790,CA,-125.7713928,52.88972092,DEAN RIVER BELOW TANSWANKET CREEK,08FC003,3848.55237568387
792,CA,-121.5711136,52.61555862,QUESNEL RIVER AT LIKELY,08KH001,4979.78552446181
794,CA,-114.929176331,52.2738609314,PRAIRIE CREEK NEAR ROCKY MOUNTAIN HOUSE,05DB002,818.264015027699
795,CA,-121.4055634,52.31528091,MOFFAT CREEK NEAR HORSEFLY,08KH019,547.707130652232
796,CA,-119.301940918,52.1166915894,BLUE RIVER NEAR BLUE RIVER,08LB038,277.120093978875
797,CA,-102.625,52.0227813721,LILIAN RIVER NEAR LADY LAKE,05MC003,229.02523970643
798,CA,-103.626106262,52.1444396973,DUCK CREEK NEAR KELVINGTON,05LA003,248.428819062051
799,CA,-113.599716187,52.0011711121,RAY CREEK NEAR INNISFAIL,05CE010,44.2333598995181
800,CA,-102.0738907,51.99777985,SWAN RIVER NEAR NORQUAY,05LE008,1937.99972251169
801,CA,-113.568557739,51.9974708557,THREEHILLS CREEK BELOW RAY CREEK,05CE018,152.870563783028
803,CA,-113.8,52.27,WASKASOO CREEK AT RED DEER,05CC011,487.141441675397
804,CA,-101.913887024,51.9688911438,MALONECK CREEK NEAR PELLY,05LE011,186.308478859672
805,CA,-101.1416092,52.25968933,WOODY RIVER NEAR BOWSMAN,05LE004,2101.74550842975
806,CA,-114.477478027,52.0892791748,RAVEN RIVER NEAR RAVEN,05CB004,705.679184635536
808,CA,-126.0055084,52.3608284,ATNARKO RIVER NEAR THE MOUTH,08FB006,2516.47082549367
810,CA,-102.5469437,51.93972015,ASSINIBOINE RIVER AT STURGIS,05MC001,1476.67250520185
811,CA,-102.330001831,51.8827781677,STONY CREEK NEAR STENEN,05MC002,235.382290157895
812,CA,-115.422180176,52.3685913086,RAM RIVER NEAR THE MOUTH,05DC006,1881.07284555697
813,CA,-116.583946228,51.7999191284,SILVERHORN CREEK NEAR THE MOUTH,05DA010,22.1047277174968
814,CA,-101.0602493,52.15089035,ROARING RIVER NEAR MINITONAS,05LE005,829.715590869796
815,CA,-114.685516357,51.9267883301,JAMES RIVER NEAR SUNDRE,05CA002,820.581500300854
817,CA,-113.361122131,51.7178382874,RENWICK CREEK NEAR THREE HILLS,05CE011,57.417309456184
820,CA,-116.689193726,51.8842697144,MISTAYA RIVER NEAR SASKATCHEWAN CROSSING,05DA007,223.822196089914
821,CA,-124.41,51.67,HOMATHKO RIVER AT INLET TO TATLAYOKO LAKE,08GD008,490.228234061688
826,CA,-124.145309448,51.6738586426,LINGFIELD CREEK NEAR THE MOUTH,08MA006,96.7718623942565
827,CA,-119.9152832,51.60277939,NORTH THOMPSON RIVER AT BIRCH ISLAND,08LB047,4221.24426892323
828,CA,-118.5969391,51.66833115,GOLDSTREAM RIVER BELOW OLD CAMP CREEK,08ND012,941.738012036359
829,CA,-112.71698761,51.4715309143,MICHICHI CREEK AT DRUMHELLER,05CE020,1189.79985102611
830,CA,-115.410560608,51.6605110168,RED DEER RIVER ABOVE PANTHER RIVER,05CA004,943.499675475995
831,CA,-114.65,51.74,FALLENTIMBER CREEK NEAR SUNDRE,05CA012,501.700896280539
833,CA,-116.19,51.43,BOW RIVER AT LAKE LOUISE,05BA001,427.971689097722
835,CA,-113.727783203,51.4158287048,ROSEBUD RIVER BELOW CARSTAIRS CREEK,05CE006,752.167447972946
836,CA,-112.978271484,51.4694595337,KNEEHILLS CREEK NEAR DRUMHELLER,05CE002,2343.77036786945
837,CA,-112.201873779,51.3908004761,FISH CREEK ABOVE LITTLE FISH LAKE,05CG006,119.066133068694
840,CA,-119.881637573,51.3543815613,HARPER CREEK NEAR THE MOUTH,08LB076,165.699026339622
841,CA,-114.140289307,52.0282402039,LITTLE RED DEER RIVER NEAR THE MOUTH,05CB001,2580.58220823602
842,CA,-105.3811111,51.30056,LEWIS CREEK NEAR IMPERIAL,05JH005,493.790893288448
844,CA,-119.9305573,51.24721909,BARRIERE RIVER BELOW SPRAGUE CREEK,08LB069,446.171966033614
846,CA,-118.9466705,51.26250076,SEYMOUR RIVER NEAR SEYMOUR ARM,08LE027,801.365993469951
851,CA,-120.208938599,51.1220283508,FISHTRAP CREEK NEAR MCLURE,08LB024,138.569492066552
852,CA,-123.104499817,51.2539710999,BIG CREEK BELOW GRAVEYARD CREEK,08MB007,195.388901036447
853,CA,-117.4616699,51.50971985,BEAVER RIVER NEAR THE MOUTH,08NB019,1152.58352616838
854,CA,-116.9680634,51.29999924,KICKING HORSE RIVER AT GOLDEN,08NA006,1841.12261298022
857,CA,-114.5283279,51.15444183,JUMPINGPOUND CREEK NEAR THE MOUTH,05BH009,529.055899933153
858,CA,-118.0824966,51.01361084,ILLECILLEWAET RIVER AT GREELEY,08ND013,1148.11858148074
860,CA,-119.6544418,50.9383316,ADAMS RIVER NEAR SQUILAX,08LD001,3187.69910852937
861,CA,-119.532836914,50.9131698608,CORNING CREEK NEAR SQUILAX,08LE077,28.5825997219137
862,CA,-124.1419373,51.62527847,CHILKO RIVER AT OUTLET OF CHILKO LAKE,08MA002,2155.89198898208
864,CA,-110.508003235,50.8989601135,ALKALI CREEK NEAR THE MOUTH,05CK005,565.44163933926
865,CA,-118.7997208,50.93638992,EAGLE RIVER NEAR MALAKWA,08LE024,939.274547373338
867,CA,-123.6305618,51.37944031,TASEKO RIVER AT OUTLET OF TASEKO LAKES,08MA003,1743.86848212434
868,CA,-122.2372208,50.91249847,YALAKOM RIVER ABOVE ORE CREEK,08ME025,576.130691472901
869,CA,-114.326843262,50.885471344,FISH CREEK NEAR PRIDDIS,05BK001,261.961718848981
870,CA,-101.58,50.83,SMITH CREEK NEAR MARCHWELL,05ME007,501.910729555147
871,CA,-101.299232483,50.7951393127,CONJURING CREEK NEAR RUSSELL,05ME005,76.0688792673555
874,CA,-107.2752838,50.80167007,SNAKEBITE CREEK NEAR BEECHY,05HE001,889.141722065395
876,CA,-119.196159363,50.6966514587,EAST CANOE CREEK ABOVE DAM,08LE108,14.8279087733071
880,CA,-114.278739929,50.7711296082,THREEPOINT CREEK NEAR MILLARVILLE,05BL013,510.721263840966
883,CA,-117.0472183,50.63806152,DUNCAN RIVER BELOW B.B. CREEK,08NH119,1323.74741794765
884,CA,-128.168395996,50.6693305969,SAN JOSEF RIVER BELOW SHARP CREEK,08HF006,70.9040840125354
885,CA,-120.910858154,50.6078300476,GUICHON CREEK ABOVE TUNKWA LAKE DIVERSION,08LG056,91.7615108564311
886,CA,-122.942016602,50.7308883667,HURLEY RIVER BELOW LONE GOAT CREEK,08ME027,313.271620145502
887,CA,-100.9524918,50.534729,BIRDTAIL CREEK NEAR BIRTLE,05ME003,1117.90655184384
891,CA,-113.344360352,50.5137710571,WEST ARROWWOOD CREEK NEAR ENSIGN,05BM018,31.128577136285
893,CA,-103.797218323,50.760559082,ECHO CREEK AT FORT QU'APPELLE,05JK008,570.812969702417
897,CA,-113.236312866,50.7640419006,WEST ARROWWOOD CREEK NEAR ARROWWOOD,05BM014,759.697360839708
900,CA,-116.913063,51.24361038,COLUMBIA RIVER AT NICHOLSON,08NA002,5011.33363905001
902,CA,-118.947036743,50.2843208313,VANCE CREEK BELOW DEAFIES CREEK,08LC040,71.157445008689
903,CA,-104.9086075,50.59056091,COTTONWOOD CREEK NEAR LUMSDEN,05JF011,612.626732339553
904,CA,-119.955558777,50.2888908386,SALMON RIVER ABOVE SALMON LAKE,08LE075,152.216705303155
905,CA,-119.081939697,50.2577781677,COLDSTREAM CREEK ABOVE MUNICIPAL INTAKE,08NM142,62.3472397643672
906,CA,-114.207298279,50.4740905762,PEKISKO CREEK NEAR LONGVIEW,05BL023,225.357300622965
907,CA,-126.58,50.44,TSITIKA RIVER BELOW CATHERINE CREEK,08HF004,310.397600185109
908,CA,-101.384246826,50.2696685791,SCISSOR CREEK NEAR MCAULEY,05ME009,245.832598656725
913,CA,-119.538612366,50.2122192383,WHITEMAN CREEK ABOVE BOULEAU CREEK,08NM174,110.319316279951
914,CA,-114.58870697,50.2852592468,CATARACT CREEK NEAR FORESTRY ROAD,05BL022,166.776275704295
915,CA,-110.257591248,50.1634788513,SAM LAKE TRIBUTARY NEAR SCHULER,05AH047,79.4104476074534
919,CA,-116.575279236,50.15832901,CARNEY CREEK BELOW PAMBRUN CREEK,08NH131,118.763460560798
921,CA,-122.948806763,50.1202507019,FITZSIMMONS CREEK BELOW BLACKCOMB CREEK,08MG026,89.7867118640854
923,CA,-107.436576843,49.9771385193,MOSQUITO CREEK NEAR PAMBRUN,05JB007,138.693368260099
926,CA,-116.7847214,50.08139038,FRY CREEK BELOW CARNEY CREEK,08NH130,466.922333862948
927,CA,-126.609169,50.21527863,NIMPKISH RIVER ABOVE WOSS RIVER,08HF005,858.466921769099
928,CA,-125.678222656,50.0904197693,SALMON RIVER ABOVE CAMPBELL LAKE DIVERSION,08HD015,260.338978861737
930,CA,-118.189842224,49.8969497681,INONOAKLIN CREEK ABOVE VALLEY CREEK,08NE110,285.853472798459
932,CA,-114.833358765,49.8914909363,LINE CREEK AT THE MOUTH,08NK022,137.545650279627
934,CA,-120.134933472,49.9649200439,PENNASK CREEK NEAR QUILCHENA,08LG016,84.835878361297
935,CA,-101.8370285,50.15219116,PIPESTONE CREEK ABOVE MOOSOMIN LAKE,05NE003,2474.00072321215
936,CA,-121.8627472,49.95391846,NAHATLATCH RIVER BELOW TACHEWANA CREEK,08MF065,718.163525528501
940,CA,-119.852027893,49.7945785522,GREATA CREEK NEAR THE MOUTH,08NM173,38.9330286608418
941,CA,-121.0297165,50.13528061,SPIUS CREEK NEAR CANFORD,08LG008,767.481579362161
943,CA,-117.12197876,49.8725509644,KEEN CREEK BELOW KYAWATS CREEK,08NH132,93.8642712941831
944,CA,-114.420593262,49.8377914429,RACEHORSE CREEK NEAR THE MOUTH,05AA027,219.335881699416
945,CA,-114.238098145,49.7632789612,TODD CREEK NEAR HIGHWAY NO.22,05AA909,75.1772520655964
946,CA,-114.183326721,49.8138885498,OLDMAN RIVER NEAR WALDRON'S CORNER,05AA023,1081.46377507797
947,CA,-116.435043335,49.7372703552,ST. MARY RIVER BELOW MORRIS CREEK,08NG077,211.601111831917
948,CA,-119.092468262,49.7029190063,WEST KETTLE RIVER NEAR MCCULLOCH,08NN015,234.676893732774
950,CA,-125.069252014,49.6928291321,BROWNS RIVER NEAR COURTENAY,08HB025,89.1175851986139
951,CA,-113.795303345,49.6393814087,BEAVER CREEK NEAR BROCKET,05AB013,256.013691040164
952,CA,-110.507110596,49.8877792358,GROS VENTRE CREEK NEAR DUNMORE,05AH037,215.063563591729
953,CA,-126.098609924,49.7084312439,UCONA RIVER AT THE MOUTH,08HC002,189.007701608889
954,CA,-117.445968628,49.6971206665,LEMON CREEK ABOVE SOUTH LEMON CREEK,08NJ160,180.295791016525
955,CA,-117.055740356,49.6225700378,REDFISH CREEK NEAR HARROP,08NJ061,25.8077149591493
956,CA,-123.102096558,49.7259483337,MAMQUAM RIVER ABOVE RING CREEK,08GA075,333.230748155912
957,CA,-120.91,49.86,COLDWATER RIVER NEAR BROOKMERE,08LG048,317.132174790393
958,CA,-114.400543213,49.6018486023,GOLD CREEK NEAR FRANK,05AA030,63.7342371927328
959,CA,-110.005027771,49.6488609314,BATTLE CREEK AT ALBERTA BOUNDARY,11AB117,107.470822627218
961,CA,-117.242347717,49.5903091431,DUHAMEL CREEK ABOVE DIVERSIONS,08NJ026,55.5945552488414
962,CA,-118.311752319,49.5891418457,BURRELL CREEK ABOVE GLOUCESTER CREEK,08NN023,227.578621767015
964,CA,-119.051963806,49.5653686523,TRAPPING CREEK NEAR THE MOUTH,08NN019,145.435507072568
967,CA,-114.41,49.6,CROWSNEST RIVER AT FRANK,05AA008,331.166386118944
969,CA,-110.94,49.58,PEIGAN CREEK NEAR PAKOWKI ROAD,05AH041,432.125361403894
970,CA,-108.13,49.71,NOTUKEU CREEK ABOVE ADMIRAL RESERVOIR,05JB004,505.443920854428
980,CA,-117.211639404,49.5185394287,FIVE MILE CREEK ABOVE CITY INTAKE,08NJ168,47.6754169215379
981,CA,-118.041999817,49.4484710693,DEER CREEK AT DEER PARK,08NE087,72.1755549220128
984,CA,-112.954269409,49.566280365,PRAIRIE BLOOD COULEE NEAR LETHBRIDGE,05AD035,222.481582277705
986,CA,-106.835830688,49.4377784729,MCDONALD CREEK NEAR MCCORD,05JA003,253.884083328064
987,CA,-110.75,49.32,MANYBERRIES CREEK AT BRODIN'S FARM,05AF010,352.023704949077
988,CA,-120.5180588,49.45750046,TULAMEEN RIVER AT PRINCETON,08NL024,1527.09043248983
990,CA,-120.978912354,49.4656791687,TULAMEEN RIVER BELOW VUICH CREEK,08NL071,253.275133057147
991,CA,-115.941291809,49.4221496582,MOYIE RIVER ABOVE NEGRO CREEK,08NH120,240.201829931373
993,CA,-113.947692871,49.4864006042,PINCHER CREEK AT PINCHER CREEK,05AA004,160.866609894345
1000,CA,-101.7189713,49.22106171,LIGHTNING CREEK NEAR CARNDUFF,05NF006,700.573882394379
1001,CA,-116.533912659,49.2026290894,DUCK CREEK NEAR WYNNDEL,08NH016,51.4294807620039
1002,CA,-122.536613464,49.2070884705,KANAKA CREEK NEAR WEBSTER CORNERS,08MH076,48.1174908893726
1003,CA,-117.23916626,49.234539032,HIDDEN CREEK NEAR THE MOUTH,08NE114,57.4827518879079
1004,CA,-119.321388245,49.2492790222,VASEUX CREEK ABOVE SOLCO CREEK,08NM171,117.560725318025
1005,CA,-116.45249176,49.1591186523,ARROW CREEK NEAR ERICKSON,08NH084,77.9152418585985
1006,CA,-114.34,49.4,CASTLE RIVER AT RANGER STATION,05AA028,374.389085554659
1008,CA,-123.969032288,49.1773910522,MILLSTONE RIVER AT NANAIMO,08HB032,99.0425326294211
1009,CA,-110.223671,49.10771942,SAGE CREEK AT Q RANCH NEAR WILDHORSE,11AA026,478.048459327649
1013,CA,-114.553871155,49.0943984985,CABIN CREEK NEAR THE MOUTH,08NP004,93.1499213871519
1015,CA,-118.4386063,49.04417038,GRANBY RIVER AT GRAND FORKS,08NN002,1811.88480910328
1021,CA,-109.2318573,49.0053100586,LYONS CREEK AT INTERNATIONAL BOUNDARY,11AB075,177.40303536822
1026,CA,-114.476387,49.00056076,FLATHEAD RIVER AT FLATHEAD,08NP001,886.932398384782
1028,CA,-106.8388901,48.96944046,ROCK CREEK BELOW HORSE CREEK NEAR INTERNATIONAL BOUNDARY,11AE009,829.099283752795
1029,CA,-117.294288635,49.0471382141,SALMO RIVER NEAR SALMO,08NE074,1187.59252023486
1030,CA,-113.142562866,49.1250114441,ROLPH CREEK NEAR KIMBALL,05AE005,211.451162110504
1031,CA,-124.997779846,48.915561676,CARNATION CREEK AT THE MOUTH,08HB048,9.42898906477976
1032,CA,-120.672546387,49.0941009521,SIMILKAMEEN RIVER ABOVE GOODFELLOW CREEK,08NL070,406.764638578189
1033,CA,-121.699752808,49.0717201233,SLESSE CREEK NEAR VEDDER CROSSING,08MH056,160.241446358358
1034,CA,-119.993522644,49.2076301575,ASHNOLA RIVER NEAR KEREMEOS,08NL004,1053.84264538217
1035,CA,-116.568061829,48.9972190857,BOUNDARY CREEK NEAR PORTHILL,08NH032,239.082305667215
1036,CA,-121.458442688,49.0836486816,CHILLIWACK RIVER AT OUTLET OF CHILLIWACK LAKE,08MH016,335.263943331334
1037,CA,-113.062400818,48.963508606,NORTH FORK MILK RIVER ABOVE ST. MARY CANAL,11AA032,158.771844518256
1038,CA,-113.839401245,49.113658905,WATERTON RIVER NEAR WATERTON PARK,05AD003,614.311883808185
1039,CA,-123.7,48.88,CHEMAINUS RIVER NEAR WESTHOLME,08HA001,334.888697499342
1041,CA,-118.765281677,48.9813919067,KETTLE RIVER NEAR FERRY,08NN013,4493.42806269819
1042,CA,-120.579368591,49.0989303589,PASAYTEN RIVER ABOVE CALCITE CREEK,08NL069,569.156133006089
1046,CA,-123.670806885,48.7278289795,KOKSILAH RIVER AT COWICHAN STATION,08HA003,236.372153191986
1048,CA,-140.558670044,61.9881706238,WHITE RIVER AT KILOMETRE 1881.6 ALASKA HIGHWAY,09CB001,6183.53063085216
1049,CA,-139.496932983,63.0825004578,YUKON RIVER ABOVE WHITE RIVER,09CD001,149222.652742271
1050,CA,-139.254440308,63.2822189331,STEWART RIVER AT THE MOUTH,09DD003,50959.345462233
1052,CA,-141.197784424,64.7894363403,YUKON RIVER AT EAGLE,09ED001,289127.425819759
1055,CA,-140.891113281,67.4241714478,PORCUPINE RIVER NEAR INTERNATIONAL BOUNDARY,09FD002,58906.1044050178
1056,CA,-128.906936646,60.0508308411,LIARD RIVER AT UPPER CROSSING,10AA001,32586.6348903969
1057,CA,-129.550003052,60.2041702271,RANCHERIA RIVER NEAR THE MOUTH,10AA004,6383.08679896731
1059,CA,-123.475418091,60.2415618896,LIARD RIVER AT FORT LIARD,10ED001,218360.916056356
1060,CA,-121.227966309,61.7427215576,LIARD RIVER NEAR THE MOUTH,10ED002,273219.61899317
1061,CA,-121.456283569,61.4163093567,SCOTTY CREEK AT HIGHWAY NO. 7,10ED009,143.24201250032
1064,CA,-133.5262146,68.3127822876,HAVIKPAK CREEK NEAR INUVIK,10LC017,18.2200052456344
1066,CA,-134.888809204,67.2588882446,PEEL RIVER ABOVE FORT MCPHERSON,10MC002,70709.4259116816
1067,CA,-139.567443848,69.3266067505,FIRTH RIVER NEAR THE MOUTH,10MD001,5729.52034545559
1068,CA,-128.421432495,68.6306686401,ANDERSON RIVER BELOW CARNWATH RIVER,10NC001,57128.2266542359
1069,CA,-111.95464325,64.6157531738,COPPERMINE RIVER BELOW DESTEFFANY LAKE,10PA001,6157.58829817654
1070,CA,-115.888893127,67.2283325195,COPPERMINE RIVER ABOVE COPPER CREEK,10PC004,47539.0619475108
1071,CA,-104.139167786,67.7083282471,ELLICE RIVER NEAR THE MOUTH,10QD001,16950.6217892044
1073,CA,-104.990562439,69.131111145,FRESHWATER CREEK NEAR CAMBRIDGE BAY,10TF001,1680.31933486264
1079,CA,-84.92221832,53.80833054,EKWAN RIVER BELOW NORTH WASHAGAMI RIVER,04EA001,8403.00670746616
1081,CA,-121.0602798,52.28971863,HORSEFLY RIVER ABOVE MCKINLEY CREEK,08KH010,795.054225555361
1082,CA,-88.7603302,52.30828094,PINEIMUTA RIVER AT EYES LAKE,04FA003,5099.0242879562
1084,CA,-116.9683304,51.48139191,BLAEBERRY RIVER ABOVE WILLOWBANK CREEK,08NB012,587.30936832798
1087,CA,-123.1144409,51.52305984,BIG CREEK ABOVE GROUNDHOG CREEK,08MB006,1268.12697977665
1089,CA,-109.7861099,58.32221985,DOUGLAS RIVER NEAR CLUFF LAKE,07MA003,1784.723019784
1092,CA,-97.04416656,50.32722092,NETLEY CREEK NEAR PETERSFIELD,05OJ008,682.608426435841
1094,CA,-114.8647232,49.89416885,FORDING RIVER AT THE MOUTH,08NK018,618.388023081572
1097,CA,-109.9870071,50.01197815,BOXELDER CREEK AT HARGRAVE'S RANCH,05AH050,1050.07178671189
1099,CA,-108.4794388,49.84444046,SWIFT CURRENT CREEK BELOW ROCK CREEK,05HD036,1446.06243435325
1106,CA,-91.45992279,49.8733902,ENGLISH RIVER AT UMFREVILLE,05QA002,7179.38737365645
1110,CA,-82.09100342,50.58544159,MISSINAIBI RIVER BELOW WABOOSE RIVER,04LM001,24222.6298102753
1115,CA,-80.12330627,46.4082489,VEUVE RIVER NEAR VERNER,02DD012,941.048964230619
1118,CA,-104.2027817,57.58889008,GEIKIE RIVER BELOW WHEELER RIVER,06DA004,8068.50837331506
1119,CA,-121.6275024,56.25111008,HALFWAY RIVER NEAR FARRELL CREEK,07FA006,9342.78123337273
1120,CA,-123.6161118,55.43500137,NATION RIVER NEAR THE MOUTH,07ED003,6806.63755333257
1123,CA,-121.2041702,55.55638885,MURRAY RIVER NEAR THE MOUTH,07FB002,5538.04514002645
1124,CA,-126.7027817,55.42499924,BABINE RIVER AT OUTLET OF NILKITKWA LAKE,08EC013,6650.71064091025
1126,CA,-124.5994415,54.08528137,NAUTLEY RIVER NEAR FORT FRASER,08JB003,6467.80782801454
1127,CA,-127.4238892,54.11806107,MORICE RIVER NEAR HOUSTON,08ED002,1912.25433564994
1128,CA,-104.3416672,53.42221832,WHITE FOX RIVER NEAR GARRICK,05KE005,1690.12514709379
1131,CA,-105.8850021,53.21305847,STURGEON RIVER NEAR PRINCE ALBERT,05GF002,5111.57448536481
1136,CA,-103.1416702,53.41667175,CARROT RIVER NEAR SMOKY BURN,05KC001,9280.2523702888
1138,CA,-126.1580582,52.42221832,BELLA COOLA RIVER ABOVE BURNT BRIDGE CREEK,08FB007,3606.85644705808
1141,CA,-120.1305618,51.18000031,BARRIERE RIVER AT THE MOUTH,08LB020,1154.26694983395
1142,CA,-101.3187714,50.96334076,SHELL RIVER NEAR INGLIS,05MD005,1975.31231351301
1145,CA,-116.9672165,50.26306152,LARDEAU RIVER AT MARBLEHEAD,08NH007,1567.37586228345
1148,CA,-114.8683319,49.86611176,ELK RIVER NEAR NATAL,08NK016,1843.56913659846
1150,CA,-117.5644379,49.46055984,SLOCAN RIVER NEAR CRESCENT VALLEY,08NJ013,3319.14083371869
1155,CA,-73.35666656,49.27639008,ASHUAPMUSHUAN (RIVIERE) EN AVAL DE LA RIVIERE DU CHEF,02RF002,11232.4353008883
1156,CA,-77.18721771,49.85749817,WASWANIPI (RIVIERE) A LA CHUTE ROUGE,03AB002,32400.8517118739
1160,CA,-69.64582825,47.61249924,LOUP (RIVIERE DU) A SAINT-JOSEPH-DE-KAMOURASKA,02PG006,517.420519926025
1164,CA,-122.6374969,58.67082977,FORT NELSON RIVER ABOVE MUSKWA RIVER,10CC002,22431.8432924901
1165,CA,-125.2508316,57.13027954,FINLAY RIVER ABOVE AKIE RIVER,07EA005,15678.9526282782
1168,CA,-76.98388672,55.23749924,BALEINE (GRANDE RIVIERE DE LA) EN AMONT DE LA RIVIERE DENYS-1,03ED001,32601.3551777177
1170,CA,-117.1619034,55.45623016,LITTLE SMOKY RIVER NEAR GUY,07GH002,10899.2179059075
1172,CA,-92.09485626,55.85036087,GODS RIVER NEAR SHAMATTAWA,04AD002,66277.7684278
1173,CA,-115.8397293,54.01245117,MCLEOD RIVER NEAR WHITECOURT,07AG004,9011.94102616983
1174,CA,-102.1037827,53.61368942,CARROT RIVER NEAR TURNBERRY,05KH007,12502.310202447
1175,CA,-122.8874969,53.31111145,WEST ROAD RIVER NEAR CINEMA,08KG001,12294.8660328614
1176,CA,-102.1950607,52.85947037,RED DEER RIVER NEAR ERWOOD,05LC001,10931.4479364327
1177,CA,-91.51022339,53.48947144,SEVERN RIVER AT OUTLET OF MUSKRAT DAM LAKE,04CA002,35701.339711801
1180,CA,-122.2236099,52.84360886,QUESNEL RIVER NEAR QUESNEL,08KH006,11558.9240941147
1182,CA,-120.066391,51.64944077,CLEARWATER RIVER NEAR CLEARWATER STATION,08LA001,10398.4721892164
1183,CA,-85.07225037,53.09130859,ATTAWAPISKAT RIVER BELOW MUKETEI RIVER,04FC001,37793.9865286535
1184,CA,-122.6532288,51.84860992,CHILCOTIN RIVER BELOW BIG CREEK,08MB005,19345.1588810634
1186,CA,-123.9333267,56.52833176,OSPIKA RIVER ABOVE ALEY CREEK,07EB002,2150.30760762672
1187,CA,-116.0632095,54.20753098,ATHABASCA RIVER NEAR WINDFALL,07AE001,19772.0514839858
1189,CA,-117.1791687,51.48332977,COLUMBIA RIVER AT DONALD,08NB005,9727.41270550539
1191,CA,-117.6230774,55.71459961,SMOKY RIVER AT WATINO,07GJ001,50084.2850792089
1193,CA,-115.6344376,49.61193848,KOOTENAY RIVER AT FORT STEELE,08NG065,11427.8394686817
1194,CA,-107.7256927,55.92324829,CHURCHILL RIVER NEAR PATUANAK,06BB003,78507.3786631679
1196,CA,-122.6166687,54.0111084,FRASER RIVER AT SHELLEY,08KB001,32188.5671657178
1197,CA,-120.2411118,51.04138947,NORTH THOMPSON RIVER AT MCLURE,08LB064,19664.6460429241
1198,CA,-128.4319458,54.63056183,SKEENA RIVER AT USK,08EF001,41960.6469480628
1200,CA,-126.0972214,59.41249847,LIARD RIVER AT LOWER CROSSING,10BE001,104246.487172848
1201,CA,-111.4021912,56.78034973,ATHABASCA RIVER BELOW MCMURRAY,07DA001,132562.582984705
1203,CA,-121.3938904,50.35694122,THOMPSON RIVER NEAR SPENCES BRIDGE,08LF051,55308.7825375542
1205,CA,-97.52494049,57.30205917,GAUER RIVER BELOW THORSTEINSON LAKE,06FA001,5784.77681344296
1208,CA,-115.1,57.07,LAFOND CREEK NEAR RED EARTH CREEK,07JC001,510.223232539245
1210,CA,-95.73925018,56.95291901,LITTLE CHURCHILL RIVER ABOVE RECLUSE LAKE,06FC001,6205.65601341911
1211,CA,-69.614440918,57.6705589294,"MELEZES (RIVIERE AUX) A 7,6 KM EN AMONT DE LA CONFLUENCE AVEC LA KOKSOAK",03KC004,40373.0858524166
1212,CA,-67.5833282471,57.8833312988,"BALEINE (RIVIERE A LA) A 40,2 KM DE L'EMBOUCHURE",03MB002,29859.8693031714
1213,CA,-111.72,55.17,LOGAN RIVER NEAR THE MOUTH,07CA012,418.303464176537
1218,CA,-114.570953369,50.948928833,ELBOW RIVER AT BRAGG CREEK,05BJ004,796.197711226071
1220,CA,-114.244911194,50.6885490417,SHEEP RIVER AT BLACK DIAMOND,05BL014,589.921735032767
1221,CA,-114.500717163,50.4050598145,HIGHWOOD RIVER AT DIEBEL'S RANCH,05BL019,774.506924586045
1222,CA,-115.019248962,51.6462516785,RED DEER RIVER BELOW BURNT TIMBER CREEK,05CA009,2243.21302537679
1223,CA,-114.663146973,51.8020782471,BEARBERRY CREEK NEAR SUNDRE,05CA011,275.718173933311
1224,CA,-113.794723511,52.354019165,BLINDMAN RIVER NEAR BLACKFALDS,05CC001,1785.01064268577
1225,CA,-124.2750015,54.4180603,STUART RIVER NEAR FORT ST. JAMES,08JE001,14702.4616084743
1226,CA,-111.060043335,50.9583015442,BLOOD INDIAN CREEK NEAR THE MOUTH,05CK001,711.864897718056
1227,CA,-116.470932007,52.0011901855,NORTH SASKATCHEWAN RIVER AT WHIRLPOOL POINT,05DA009,1910.8316317217
1228,CA,-115.287918091,52.2545700073,PRAIRIE CREEK BELOW LICK CREEK,05DB005,207.694128763144
1229,CA,-114.855819702,52.2521018982,CLEARWATER RIVER NEAR DOVERCOURT,05DB006,2272.71823184482
1230,CA,-113.282356262,53.8327598572,STURGEON RIVER NEAR FORT SASKATCHEWAN,05EA001,3345.90802525621
1231,CA,-104.7358322,55.64749908,CHURCHILL RIVER ABOVE OTTER RAPIDS,06CD002,116717.265050139
1232,CA,-128.3305664,54.48332977,ZYMOETZ RIVER ABOVE O.K. CREEK,08EF005,2922.7899621064
1235,CA,-112.355957031,52.5173797607,BIGKNIFE CREEK NEAR GADSBY,05FC002,271.406482479382
1236,CA,-110.867340088,53.0072288513,BUFFALO CREEK AT HIGHWAY NO. 41,05FE002,865.127585998555
1238,CA,-108.625,51.7874984741,OPUNTIA LAKE WEST INFLOW,05GC007,114.287536818341
1239,CA,-106.946113586,50.2511100769,FLOWING WELL WEST INFLOW NEAR FLOWING WELL,05JC007,98.711936415924
1240,CA,-104.460830688,50.3877792358,HUNTER CREEK NEAR RICHARDSON,05JF014,172.060691227005
1242,CA,-95.12000275,54.85639191,HAYES RIVER BELOW TROUT FALLS,04AA004,8672.22189584462
1243,CA,-114.144378662,49.488658905,CASTLE RIVER NEAR BEAVER MINES,05AA022,825.646293680318
1249,CA,-104.250389099,52.013671875,QUILL CREEK NEAR QUILL LAKE,05MA020,266.849487913953
1250,CA,-104.205307007,51.8142204285,MAGNUSSON CREEK NEAR WYNYARD,05MA021,88.6278531270701
1255,CA,-101.049278259,49.0573883057,ANTLER RIVER NEAR MELITA,05NF002,3374.65165853601
1256,CA,-108.6044388,54.29639053,BEAVER RIVER NEAR DORINTOSH,06AD001,19790.9232970228
1259,CA,-96.9844512939,49.1912498474,ROSEAU RIVER NEAR DOMINION CITY,05OD001,4518.88831028463
1260,CA,-113.663543701,49.9541282654,MEADOW CREEK NEAR THE MOUTH,05AB029,136.995745020752
1264,CA,-92.1763076782,48.38256073,NAMAKAN RIVER AT OUTLET OF LAC LA CROIX,05PA006,13347.8427535958
1265,CA,-92.7238311768,48.8502197266,TURTLE RIVER NEAR MINE CENTRE,05PB014,5142.79699430388
1267,CA,-109.5272217,53.54111099,MONNERY RIVER NEAR PARADISE HILL,05EF004,892.207580508459
1270,CA,-111.367446899,54.436050415,BEAVER RIVER NEAR GOODRIDGE,06AA001,4318.88044186617
1271,CA,-110.217277527,54.3551597595,BEAVER RIVER AT COLD LAKE RESERVE,06AD006,14030.0808276791
1272,CA,-98.7769393921,60.786529541,THLEWIAZA RIVER ABOVE OUTLET SEALHOLE LAKE,06HB002,27353.0117821203
1273,CA,-101.362327576,64.5303878784,THELON RIVER ABOVE BEVERLY LAKE,06JC002,65688.7269306373
1274,CA,-99.4760818481,64.232421875,DUBAWNT RIVER AT OUTLET OF MARJORIE LAKE,06KC003,67017.3700235201
1275,CA,-100.973892212,61.2536087036,KAZAN RIVER AT OUTLET OF ENNADAI LAKE,06LA001,21117.4254362358
1277,CA,-115.571769714,51.1722297668,BOW RIVER AT BANFF,05BB001,2213.08421691806
1279,CA,-97.0538635254,64.7782821655,THELON RIVER BELOW OUTLET OF SCHULTZ LAKE,06MA006,151615.842860349
1281,CA,-118.058700562,52.9101905823,ATHABASCA RIVER NEAR JASPER,07AA002,3873.56103857895
1282,CA,-117.569419861,53.4242897034,ATHABASCA RIVER AT HINTON,07AD002,9803.21817472008
1283,CA,-116.631492615,53.4701805115,MCLEOD RIVER ABOVE EMBARRAS RIVER,07AF002,2569.02093344
1285,CA,-116.162017822,53.6970481873,MCLEOD RIVER NEAR ROSEVEAR,07AG007,7012.4948002219
1286,CA,-115.48890686,53.1383018494,RAT CREEK NEAR CYNTHIA,07BA002,760.578110607008
1287,CA,-115.004737854,53.6041908264,PEMBINA RIVER NEAR ENTWISTLE,07BB002,4445.06463217829
1288,CA,-115.417167664,55.3155403137,SWAN RIVER NEAR KINUSO,07BJ001,1913.11068721051
1289,CA,-114.239097595,55.1574783325,SAULTEAUX RIVER NEAR SPURFIELD,07BK005,2696.29096648325
1290,CA,-112.46736908,55.1994781494,WANDERING RIVER NEAR WANDERING RIVER,07CA006,1431.47365173869
1291,CA,-111.25541687,56.6852798462,CLEARWATER RIVER AT DRAPER,07CD001,30861.565933505
1292,CA,-111.566253662,56.9453315735,BEAVER RIVER ABOVE SYNCRUDE,07DA018,206.489199377026
1293,CA,-120.923332214,55.1458282471,QUALITY CREEK NEAR THE MOUTH,07FB005,27.995245318632
1295,CA,-118.916259766,55.3745002747,GRANDE PRAIRIE CREEK NEAR SEXSMITH,07GE003,119.982263183081
1297,CA,-117.660957336,56.5109405518,WHITEMUD RIVER NEAR DIXONVILLE,07HA005,2063.73067356608
1299,CA,-115.859642029,60.7430000305,HAY RIVER NEAR HAY RIVER,07OB001,51032.499286701
1300,CA,-117.636329651,59.1494598389,HAY RIVER NEAR MEANDER RIVER,07OB003,36834.5563858098
1304,CA,-115.021751404,64.3877487183,INDIN RIVER ABOVE CHALCO LAKE,07SA004,1912.37793814081
1305,CA,-114.409751892,62.5135612488,BAKER CREEK AT OUTLET OF LOWER MARTIN LAKE,07SB013,145.743417887243
1306,CA,-110.487503052,63.0480613708,WALDRON RIVER NEAR THE MOUTH,07SC002,2168.74210111988
1307,CA,-137.537384033,61.5604400635,SEKULMUN RIVER AT OUTLET OF SEKULMUN LAKE,08AA008,1224.10451715994
1308,CA,-136.982192993,61.1949996948,GILTANA CREEK NEAR THE MOUTH,08AA009,187.788940016101
1310,CA,-132.130279541,56.7080612183,STIKINE RIVER NEAR WRANGELL,08CF003,50803.5450797048
1311,CA,-131.668991089,56.7344398499,ISKUT RIVER BELOW JOHNSON RIVER,08CG001,9521.66623758597
1316,CA,-125.085716248,49.736579895,DOVE CREEK NEAR THE MOUTH,08HB075,50.0794728691259
1318,CA,-126.82006073,50.1356887817,ZEBALLOS RIVER AT MOOK PEAK,08HE008,12.8964399966553
1320,CA,-127.882247925,50.734500885,PUGH CREEK NEAR NAHWITTI LAKE,08HF012,24.9505007736459
1321,CA,-125.408332825,53.2633285522,VAN TINE CREEK NEAR THE MOUTH,08JA014,159.777441876897
1329,CA,-121.967483521,49.0973815918,CHILLIWACK RIVER AT VEDDER CROSSING,08MH001,1227.86147417352
1331,CA,-122.232299805,49.0024909973,SUMAS RIVER NEAR HUNTINGDON,08MH029,175.049087365337
1332,CA,-121.663002014,49.1017189026,CHILLIWACK RIVER ABOVE SLESSE CREEK,08MH103,650.482852221599
1333,CA,-122.660087585,49.0956993103,"NICOMEKL RIVER AT 203 STREET, LANGLEY",08MH155,69.8040897571677
1335,CA,-116.898902893,51.5265007019,SPLIT CREEK AT THE MOUTH,08NB016,79.3597737114056
1337,CA,-118.125473022,49.9051818848,BARNES CREEK NEAR NEEDLES,08NE077,183.081556979828
1338,CA,-87.95339203,53.71175003,ASHEWEIG RIVER AT STRAIGHT LAKE,04DB001,7891.29779374154
1341,CA,-115.896728516,49.7136611938,MATHER CREEK BELOW HOULE CREEK,08NG076,140.167670115444
1342,CA,-116.179718018,48.999168396,MOYIE RIVER AT EASTPORT,08NH006,1444.36524630484
1344,CA,-120.50353241,49.4597015381,SIMILKAMEEN RIVER AT PRINCETON,08NL007,1812.03873904778
1345,CA,-120.152313232,49.3769683838,SIMILKAMEEN RIVER NEAR HEDLEY,08NL038,5567.89577752092
1350,CA,-120.011169434,49.7123413086,CAMP CREEK AT MOUTH NEAR THIRSK,08NM134,38.1372587754534
1351,CA,-118.215278625,48.9844398499,KETTLE RIVER NEAR LAURIER,08NN012,9951.61772513052
1354,CA,-135.741104126,60.851108551,TAKHINI RIVER NEAR WHITEHORSE,09AC001,6983.6484867029
1356,CA,-137.009674072,62.5678291321,BIG CREEK NEAR THE MOUTH,09AH003,1792.98857019177
1357,CA,-122.519722,52.97306061,BAKER CREEK AT QUESNEL,08KE016,1584.52547173334
1358,CA,-136.580566406,62.8297195435,PELLY RIVER AT PELLY CROSSING,09BC001,48858.6640944917
1360,CA,-133.377807617,62.2207489014,PELLY RIVER BELOW VANGORDA CREEK,09BC004,22021.847092181
1362,CA,-139.042602539,62.2049713135,NISLING RIVER BELOW ONION CREEK,09CA006,7867.64204910519
1363,CA,-114.671188354,53.8737106323,COYOTE CREEK NEAR CHERHILL,07BB014,52.8517767241936
1364,CA,-113.99331665,54.4502906799,PEMBINA RIVER AT JARVIE,07BC002,12981.3720814977
1365,CA,-113.287956238,54.7220306396,ATHABASCA RIVER AT ATHABASCA,07BE001,74714.5938043904
1366,CA,-113.46346283,54.2931518555,STONY CREEK NEAR TAWATINAW,07BE004,166.145685642256
1368,CA,-117.72,51.68,GOLD RIVER ABOVE PALMER CREEK,08NB014,430.515074209211
1369,CA,-114.67,51.51,LITTLE RED DEER RIVER NEAR WATER VALLEY,05CB002,460.647951435852
1370,CA,-114.84,51.28,WAIPAROUS CREEK NEAR THE MOUTH,05BG006,321.150975233475
1374,CA,-116.05,50.89,KOOTENAY RIVER AT KOOTENAY CROSSING,08NF001,422.491983415271
1375,CA,-106.33,50.95,RIDGE CREEK NEAR BRIDGEFORD,05JG013,549.181468645438
1381,CA,-112.91,50.47,SNAKE CREEK NEAR VULCAN,05AC030,351.350489874491
1382,CA,-117.75,50.28,KUSKANAX CREEK NEAR NAKUSP,08NE006,333.185683682214
1383,CA,-107.47,50.25,RUSHLAKE CREEK ABOVE HIGHFIELD RESERVOIR,05JC004,296.914377988653
1384,CA,-113.69,49.98,TROUT CREEK NEAR GRANUM,05AB005,439.010837283723
1385,CA,-108.49,50.09,BRIDGE CREEK AT GULL LAKE,05HA015,383.698363400891
1387,CA,-116.95,49.91,KASLO RIVER BELOW KEMP CREEK,08NH005,444.08624916574
1388,CA,-115.33,54.23,CHRISTMAS CREEK NEAR BLUE RIDGE,07AH002,459.104246024472
1390,CA,-125.24,49.89,OYSTER RIVER BELOW WOODHUS CREEK,08HD011,303.973633467875
1392,CA,-120.07,49.37,HEDLEY CREEK NEAR THE MOUTH,08NL050,388.212299739548
1394,CA,-67.6558303833,49.3305587769,"GODBOUT (RIVIERE) A 1,6 KM EN AMONT DU PONT-ROUTE 138",02UA003,1907.19714130974
1395,CA,-107.7,49.31,DENNIEL CREEK NEAR VAL MARIE,11AC025,495.712218924616
1398,CA,-113.93,54.22,WABASH CREEK NEAR PIBROCH,07BC007,311.688624839675
1399,CA,-117.94,49.02,BIG SHEEP CREEK NEAR ROSSLAND,08NE039,288.773540566661
1403,CA,-81.05,48.55,PORCUPINE RIVER AT HOYLE,04MD004,397.180623265686
1406,CA,-78.8533325195,48.3666687012,"KINOJEVIS (RIVIERE) A 0,3 KM EN AMONT DU PONT-ROUTE A CLERICY",02JB013,2607.65599163168
1407,CA,-65.11,47.44,BIG TRACADIE RIVER AT MURCHY BRIDGE CROSSING,01BL003,383.471469232564
1408,CA,-128.6,54.06,HIRSCH CREEK NEAR THE MOUTH,08FF002,354.779355963803
1410,CA,-60.98,46.37,NORTHEAST MARGAREE RIVER AT MARGAREE VALLEY,01FB001,367.355801964053
1411,CA,-65.17,45.95,PETITCODIAC RIVER NEAR PETITCODIAC,01BU002,408.785313562659
1412,CA,-72.86,45.95,DAVID (RIVIERE) AU PONT-ROUTE A SAINT-DAVID,02OG026,322.611842131558
1413,CA,-75.0913925171,45.7916717529,"PETITE NATION (RIVIERE DE LA) AU PONT A 1,6 KM EN AMONT DE RIPON",02LD005,1255.07710960578
1414,CA,-79.38,45.67,NORTH MAGNETAWAN RIVER NEAR BURK'S FALLS,02EA005,311.747231648111
1415,CA,-75.15,45.43,BEAR BROOK NEAR BOURGET,02LB008,478.012382372529
1416,CA,-74.64,45.16,RAISIN RIVER NEAR WILLIAMSTOWN,02MC001,370.022711894651
1417,CA,-74.2388916,56.45471954,LOUPS MARINS (LAC DES) DANS LE BASSIN VERSANT DE LA RIVIERE NASTAPOCA,03FA003,9503.48421613609
1419,CA,-77.12,44.84,MISSISSIPPI RIVER BELOW MARBLE LAKE,02KF016,360.24217061296
1422,CA,-81.18,44.54,SAUBLE RIVER AT ALLENFORD,02FA004,312.416416214309
1423,CA,-80.79,44.19,SAUGEEN RIVER ABOVE DURHAM,02FC016,312.689146507526
1424,CA,-79.19,44.27,PEFFERLAW BROOK NEAR UDORA,02EC018,344.06862300415
1425,CA,-79.89,44.11,NOTTAWASAGA RIVER NEAR ALLISTON,02ED101,327.655528331231
1427,CA,-81.54,43.68,SOUTH MAITLAND RIVER AT SUMMERHILL,02FE009,370.113082665211
1428,CA,-81.12,43.72,MIDDLE MAITLAND RIVER ABOVE ETHEL,02FE013,421.046838581759
1429,CA,-107.97,53.95,ALCOTT CREEK ABOVE MEADOW LAKE,06AD011,402.014169023736
1430,CA,-80.15,43.15,FAIRCHILD CREEK NEAR BRANTFORD,02GB007,387.875532773298
1431,CA,-80.99,43.06,MIDDLE THAMES RIVER AT THAMESFORD,02GD004,310.553133678987
1432,CA,-81.21,42.78,KETTLE CREEK AT ST. THOMAS,02GC002,317.034115819169
1435,CA,-65.221862793,44.4367790222,MERSEY RIVER BELOW MILL FALLS,01ED007,287.021539529377
1436,CA,-109.16,53.58,ENGLISHMAN RIVER NEAR SPRUCE LAKE,05EF006,365.406946158763
1437,CA,-63.6875,44.7644691467,LITTLE SACKVILLE RIVER AT MIDDLE SACKVILLE,01EJ004,10.5270665382545
1438,CA,-127.7141724,55.43360901,KISPIOX RIVER NEAR HAZELTON,08EB004,1923.07822734202
1439,CA,-82.6002807617,46.5115814209,SERPENT RIVER ABOVE QUIRKE LAKE,02CD006,149.383123001004
1440,CA,-81.1991119385,46.5833587646,WHITSON RIVER AT CHELMSFORD,02CF007,288.843829038794
1441,CA,-80.8215332031,46.4752807617,CONISTON CREEK ABOVE WANAPITEI RIVER,02DB007,56.291143692649
1443,CA,-106.37,52.75,KOHLESCHMIDT CREEK NEAR ROSTHERN,05HH003,361.426569872321
1445,CA,-62.3823318481,46.4531402588,BEAR RIVER AT ST. MARGARETS,01CD005,15.3296329938744
1446,CA,-86.6072235107,48.8491096497,LITTLE PIC RIVER NEAR COLDWELL,02BA003,1324.17374292411
1447,CA,-84.2816925049,46.5628585815,ROOT RIVER AT SAULT STE. MARIE,02CA002,108.492988729224
1448,CA,-79.8214187622,44.2498092651,NOTTAWASAGA RIVER NEAR BAXTER,02ED003,1230.57775950837
1449,CA,-81.5134429932,43.9652786255,LUCKNOW RIVER AT LUCKNOW,02FD002,69.7996577751749
1450,CA,-80.4550323486,43.1897201538,NITH RIVER NEAR CANNING,02GA010,1034.28460302922
1451,CA,-80.7108078003,43.3772201538,NITH RIVER AT NEW HAMBURG,02GA018,544.244014345367
1452,CA,-80.6326065063,43.3644714355,HUNSBURGER CREEK NEAR WILMOT CENTRE,02GA043,13.1469612053809
1453,CA,-81.0569381714,42.7460784912,CATFISH CREEK NEAR SPARTA,02GC018,294.497131185649
1454,CA,-82.008392334,42.6506118774,SYDENHAM RIVER AT FLORENCE,02GG003,1149.3220251475
1455,CA,-82.2984237671,42.8120307922,BEAR CREEK BELOW BRIGDEN,02GG009,535.608106184494
1456,CA,-79.3832473755,43.1334686279,TWENTY MILE CREEK AT BALLS FALLS,02HA006,291.724858690531
1457,CA,-79.9881134033,43.3888587952,BRONTE CREEK AT CARLISLE,02HB022,123.423156489141
1458,CA,-80.0528106689,43.2829208374,SPENCER CREEK AT HIGHWAY NO. 5,02HB023,126.191726305719
1459,CA,-79.5844192505,43.7900810242,EAST HUMBER RIVER NEAR PINE GROVE,02HC009,190.912044102699
1460,CA,-79.6275787354,43.8113098145,HUMBER RIVER AT ELDER MILLS,02HC025,296.277509377281
1461,CA,-79.0561065674,43.8488883972,DUFFINS CREEK AT AJAX,02HC049,257.463810006191
1462,CA,-75.3437805176,45.2625007629,CASTOR RIVER AT RUSSELL,02LB006,438.662958471555
1464,CA,-56.6151885986,49.3672485352,INDIAN BROOK DIVERSION ABOVE BIRCHY LAKE,02YM004,242.727611387583
1465,CA,-56.93399811,47.74330902,GREY RIVER NEAR GREY RIVER,02ZD002,1364.40497961915
1466,CA,-53.0821113586,48.0427818298,BIG BROOK AT LEAD COVE,02ZL005,11.1938214443866
1467,CA,-52.745059967,47.5290603638,WATERFORD RIVER AT KILBRIDE,02ZM008,52.7720573852499
1468,CA,-114.169723511,50.9268798828,ELBOW RIVER AT SARCEE BRIDGE,05BJ010,1189.33662075197
1469,CA,-112.083969116,51.662109375,BULLPOUND CREEK NEAR WATTS,05CG004,200.049596535303
1471,CA,-112.049850464,53.294090271,VERMILION RIVER TRIBUTARY NEAR BRUCE,05EE006,46.4133016851976
1472,CA,-110.473602295,51.5666618347,SOUNDING CREEK NEAR OYEN,05GA008,2989.53154962968
1473,CA,-110.148399353,52.5652313232,KILLARNEY LAKE TRIBUTARY NEAR CHAUVIN,05GA010,1008.33447750705
1474,CA,-110.919776917,51.5476799011,SOUNDING CREEK NEAR CHINOOK,05GA012,2297.55932407412
1475,CA,-109.036109924,52.2305603027,MUDDY LAKE INFLOW NEAR REVENUE,05GB004,255.509371324322
1476,CA,-106.820892334,51.5040817261,INVERNESS CREEK NEAR BRODERICK,05HG021,63.9176289256837
1477,CA,-104.789253235,52.4055290222,RANCH CREEK ABOVE RANCH LAKE,05MA025,170.515171916808
1482,CA,-98.3281097412,49.5025291443,ROSEISLE CREEK NEAR ROSEISLE,05OF009,223.530756488121
1483,CA,-108.577217102,54.1652793884,MORIN CREEK NEAR MEADOW LAKE,06AD008,166.76981296722
1484,CA,-116.492637634,55.4482116699,WEST PRAIRIE RIVER NEAR HIGH PRAIRIE,07BF002,1151.84682225209
1486,CA,-117.488540649,56.8950195313,BUCHANAN CREEK NEAR MANNING,07HC002,241.121536653125
1487,CA,-116.250297546,58.1374206543,TEEPEE CREEK NEAR LA CRETE,07JD004,134.971703635644
1488,CA,-117.280723572,59.4057998657,LUTOSE CREEK NEAR STEEN RIVER,07OB006,291.966008772412
1489,CA,-123.725471497,48.7892189026,BINGS CREEK NEAR THE MOUTH,08HA016,20.119830301893
1490,CA,-117.729347229,50.7344589233,BEATON CREEK NEAR BEATON,08NE008,96.6638474501677
1492,CA,-96.5108108521,66.0861434937,BACK RIVER ABOVE HERMANN RIVER,10RC001,96964.9126418199
1493,CA,-92.80917358,56.41667175,HAYES RIVER BELOW GODS RIVER,04AB001,103162.210654795
1494,CA,-105.5433273,59.15000153,FOND DU LAC RIVER AT OUTLET OF BLACK LAKE,07LE002,50461.4461292453
1495,CA,-107.8105621,54.81917191,BEAVER RIVER BELOW WATERHEN RIVER,06AG001,45131.5324919255
1497,CA,-76.86638641,51.4486084,RUPERT (RIVIERE DE) EN AVAL DU LAC NEMISCAU,03BC002,39825.5218601601
1499,CA,-131.1544342,57.90082932,STIKINE RIVER AT TELEGRAPH CREEK,08CE001,29050.0836047156
1501,CA,-87.06667328,52.08610916,ATTAWAPISKAT RIVER BELOW ATTAWAPISKAT LAKE,04FB001,24617.5041053121
1502,CA,-77.61444092,49.75305939,BELL (RIVIERE) EN AMONT DU LAC MATAGAMI,03AC004,22988.0600323036
1504,CA,-121.8503571,54.0786705,FRASER RIVER AT HANSARD,08KA004,18120.6860966566
1505,CA,-72.48806,48.68638992,CHAMOUCHOUANE (RIVIERE) A LA TETE DE LA CHUTE AUX SAUMONS,02RF001,15811.6695233739
1506,CA,-119.7402802,50.76499939,SOUTH THOMPSON RIVER AT CHASE,08LE031,15800.4867002828
1508,CA,-118.8028717,55.07125092,WAPITI RIVER NEAR GRANDE PRAIRIE,07GE001,11296.9804672887
1510,CA,-66.94805908,47.90866852,RESTIGOUCHE RIVER ABOVE RAFTING GROUND BROOK,01BJ007,7861.14854055205
1512,CA,-109.2225037,54.4458313,WATERHEN RIVER NEAR GOODSOIL,06AF005,7843.97125253647
1515,CA,-126.898613,54.61806107,BULKLEY RIVER AT QUICK,08EE004,7364.92548179591
1516,CA,-123.5366669,52.06999969,CHILKO RIVER NEAR REDSTONE,08MA001,6693.71375216881
1518,CA,-101.0608292,52.19599915,SWAN RIVER NEAR MINITONAS,05LE006,4285.48111226796
1521,CA,-101.1025009,53.14294052,OVERFLOWING RIVER AT OVERFLOWING RIVER,05LD001,3363.79191625629
1522,CA,-115.0713882,49.50999832,ELK RIVER AT FERNIE,08NK002,3087.25748241403
1525,CA,-97.48166656,49.49008179,MORRIS RIVER NEAR ROSENORT,05OF020,2306.36832122689
1530,CA,-112.0398026,53.49118042,VERMILION RIVER AT VEGREVILLE,05EE009,1615.34473729809
1531,CA,-96.42832947,50.0901413,BROKENHEAD RIVER NEAR BEAUSEJOUR,05SA002,1493.95973537092
1533,CA,-113.9213028,55.91667175,WILLOW RIVER NEAR WABASCA,07JA003,1104.99838449218
1534,CA,-102.7100601,50.53017044,EKAPO CREEK NEAR MARIEVAL,05JM010,1070.44113493898
1535,CA,-97.54981232,49.25080872,DEADHORSE CREEK NEAR ROSENFELD,05OC016,945.018080373964
1537,CA,-102.7513885,52.61832809,SHAND CREEK NEAR DILLABOUGH,05LB006,625.140887501325
1539,CA,-127.9444427,53.56943893,KEMANO RIVER ABOVE POWERHOUSE TAILRACE,08FE003,553.687129982153
1540,CA,-101.84,51.39,STONY CREEK NEAR KAMSACK,05MD010,377.121994822256
1541,CA,-101.85,49.58,ANTLER RIVER NEAR WAUCHOPE,05NF010,359.831315463856
1542,CA,-126.68,55.98,DRIFTWOOD RIVER ABOVE KASTBERG CREEK,08JD006,358.613818317711
1543,CA,-127.5,54.6,TELKWA RIVER BELOW TSAI CREEK,08EE020,358.968391397285
1544,CA,-124.24,54.61,TSILCOH RIVER NEAR THE MOUTH,08JE004,353.362894529486
1547,US,-68.56551,47.01169,"Fish River near Fort Kent, Maine",1013500,2303.98808677981
1548,US,-68.07313,44.79691,"Narraguagus River at Cherryfield, Maine",1022500,620.387273443505
1549,US,-68.14985,45.80527,"Mattawamkeag River near Mattawamkeag, Maine",1030500,3676.15474509999
1550,US,-69.58119,45.23568,"Piscataquis River near Dover-Foxcroft, Maine",1031500,766.544703217711
1551,US,-70.16213,44.98744,"Carrabassett River near North Anson, Maine",1047000,904.95619435296
1552,US,-71.17197,44.96168,"Diamond River near Wentworth Location, NH",1052500,396.110305204965
1553,US,-71.05872,44.31072,"Wild River at Gilead, Maine",1054200,181.328678257732
1554,US,-70.62632,44.75157,"Swift River near Roxbury, Maine",1055000,251.161408945656
1555,US,-70.60039,44.3434,"Little Androscoggin River near South Paris, Maine",1057000,197.698791003606
1556,US,-71.00569,43.15747,"OYSTER RIVER NEAR DURHAM, NH",1073000,32.1145773578521
1557,US,-71.89296,43.56186,"SMITH RIVER NEAR BRISTOL, NH",1078000,221.863559750492
1558,US,-71.83983,41.48743,"PENDLETON HILL BROOK NEAR CLARKS FALLS, CT.",1118300,13.7066628778899
1559,US,-72.17296,41.87382,"MOUNT HOPE RIVER NEAR WARRENVILLE, CT.",1121000,94.7009037459999
1560,US,-72.05134,41.75061,"LITTLE RIVER NEAR HANOVER, CT.",1123000,84.2111074084833
1561,US,-71.80225,44.57153,"MOOSE RIVER AT VICTORY, VT",1134500,209.507313944318
1562,US,-71.47415,44.25389,"AMMONOOSUC RIVER AT BETHLEHEM JUNCTION, NH",1137500,238.325090348117
1563,US,-72.21213,44.21836,"WELLS RIVER AT WELLS RIVER, VT",1139000,259.505080280723
1564,US,-72.36594,44.09478,"EAST ORANGE BRANCH AT EAST ORANGE, VT",1139800,24.916417980652
1565,US,-72.66255,44.00276,"AYERS BROOK AT RANDOLPH, VT",1142500,79.9082048406223
1566,US,-72.66126,43.88571,"WHITE RIVER AT WEST HARTFORD, VT",1144000,1780.68770045698
1567,US,-72.14154,42.75409,"PRIEST BROOK NEAR WINCHENDON, MA",1162500,77.9305550719558
1568,US,-72.77633,42.73597,"NORTH RIVER AT SHATTUCKVILLE, MA",1169000,233.886855275291
1569,US,-72.70524,42.79432,"GREEN RIVER NEAR COLRAIN, MA",1170100,109.2614190084
1570,US,-73.03143,42.30441,"WEST BRANCH WESTFIELD RIVER AT HUNTINGTON, MA",1181000,245.720934039873
1571,US,-72.9751,42.07967,"HUBBARD RIVER NR. WEST HARTLAND, CT.",1187300,54.2207830446564
1572,US,-72.54759,41.32971,"INDIAN RIVER NEAR CLINTON, CT.",1195100,15.9561141374041
1573,US,-73.23597,42.63857,"GREEN RIVER AT WILLIAMSTOWN, MA",1333000,111.501903578174
1574,US,-74.26812,42.25692,SCHOHARIE CREEK AT PRATTSVILLE NY,1350000,614.259794850489
1575,US,-74.3438,42.39659,MANOR KILL AT WEST CONESVILLE NEAR GILBOA NY,1350080,89.575210348146
1576,US,-74.53833,42.44596,MINE KILL NEAR NORTH BLENHEIM NY,1350140,47.570517667208
1577,US,-74.42639,41.9147,RONDOUT CREEK NEAR LOWES CORNERS NY,1365000,102.568103076081
1578,US,-74.86063,39.34938,TUCKAHOE RIVER AT HEAD OF RIVER NJ,1411300,79.3700711584996
1579,US,-74.55636,42.20133,EAST BR DELAWARE R AT MARGARETVILLE NY,1413500,434.003694630135
1580,US,-74.65448,42.08086,MILL BROOK NEAR DUNRAVEN NY,1414500,67.0771806712101
1581,US,-74.80096,42.18552,TREMPER KILL NEAR ANDES NY,1415000,86.6842785068315
1582,US,-74.87784,42.28871,WEST BRANCH DELAWARE RIVER AT WALTON NY,1423000,861.798417654311
1583,US,-74.48483,42.01478,BISCUIT BK ABOVE PIGEON BK AT FROST VALLEY NY,1434025,9.89631206216224
1584,US,-74.50569,41.96424,NEVERSINK RIVER NEAR CLARYVILLE NY,1435000,183.309341409783
1585,US,-75.0974,41.20994,"Bush Kill at Shoemakers, PA",1439500,306.094634441523
1586,US,-74.79817,41.21119,FLAT BROOK NEAR FLATBROOKVILLE NJ,1440000,171.566830737221
1587,US,-75.24309,41.18775,"Brodhead Creek near Analomink, PA",1440400,178.980860924729
1588,US,-75.68416,40.6604,"Jordan Creek near Schnecksville, PA",1451800,149.111212919589
1589,US,-74.49062,39.87334,MCDONALDS BRANCH IN LEBANON STATE FOREST NJ,1466500,6.24875645591669
1590,US,-75.52798,38.89235,"BEAVERDAM BRANCH AT HOUSTON, DE",1484100,9.65724474368002
1591,US,-75.46888,38.29482,"NASSAWANGO CREEK NEAR SNOW HILL, MD",1485500,112.983158056421
1592,US,-75.65106,38.21674,"MANOKIN BRANCH NEAR PRINCESS ANNE, MD",1486000,15.994160237067
1593,US,-75.56216,38.8002,"NANTICOKE RIVER NEAR BRIDGEVILLE, DE",1487000,187.186106186023
1594,US,-75.70663,39.07677,"CHOPTANK RIVER NEAR GREENSBORO, MD",1491000,291.805648821935
1595,US,-75.80821,42.68791,OTSELIC RIVER AT CINCINNATUS NY,1510000,382.931630006095
1596,US,-76.96981,41.76926,"Corey Creek near Mainesburg, PA",1516500,31.5595128912407
1597,US,-77.6206,41.93231,"Cowanesque River at Westfield, PA",1518862,234.489445181695
1598,US,-76.6915,41.66388,"Towanda Creek near Monroeton, PA",1532000,556.695090842686
1599,US,-76.3416,41.23694,"Fishing Creek near Bloomsburg, PA",1539000,705.231987759038
1600,US,-78.2881,41.6115,"Waldy Run near Emporium, PA",1542810,13.5783285430494
1601,US,-78.29729,41.54218,"Driftwood Br Sinnemahoning Cr at Sterling Run, PA",1543000,704.485765197162
1602,US,-78.35836,41.40397,"Sinnemahoning Creek at Sinnemahoning, PA",1543500,1778.99663323461
1603,US,-77.72149,41.58549,"Kettle Creek at Cross Fork, PA",1544500,363.084293171461
1604,US,-77.64025,41.46426,"Young Womans Creek near Renovo, PA",1545600,123.626576137714
1605,US,-77.74363,41.04534,"Marsh Creek at Blanchard, PA",1547700,115.192481727859
1606,US,-77.50991,41.71098,"Pine Creek at Cedar Run, PA",1548500,1558.00541915528
1607,US,-77.13671,41.51403,"Blockhouse Creek near English Center, PA",1549500,98.9152632102339
1608,US,-76.9518,41.53137,"Lycoming Creek near Trout Run, PA",1550000,456.324596590596
1609,US,-76.60305,41.4651,"Loyalsock Creek at Loyalsockville, PA",1552000,1129.571081302
1610,US,-76.46825,41.37431,"Muncy Creek near Sonestown, PA",1552500,62.0577735796836
1611,US,-78.21291,40.74115,"Bald Eagle Creek at Tyrone, PA",1557500,117.781988484661
1612,US,-77.44,40.38734,"Bixler Run near Loysville, PA",1567500,39.5038089166169
1613,US,-77.40676,40.3193,"Sherman Creek at Shermans Dale, PA",1568000,536.405296101453
1614,US,-76.53141,39.693,"DEER CREEK AT ROCKS, MD",1580000,246.9681753818
1615,US,-76.76289,39.53296,"WESTERN RUN AT WESTERN RUN, MD",1583500,163.426268522937
1616,US,-77.01429,39.48942,"MORGAN RUN NEAR LOUISVILLE, MD",1586610,72.8091900546512
1617,US,-77.06386,39.30656,"CATTAIL CREEK NEAR GLENWOOD, MD",1591400,59.6099539110837
1618,US,-79.41151,39.28331,"MCMILLAN F NEAR FORT PENDLETON, MD",1594950,6.10475546382873
1619,US,-79.05898,39.63149,"SAVAGE RIVER NEAR BARTON, MD",1596500,127.509184708373
1620,US,-79.45611,38.52689,"SOUTH BRANCH POTOMAC RIVER AT FRANKLIN, WV",1605500,474.38486764615
1621,US,-79.41803,38.69911,"SO. BRANCH POTOMAC RIVER NR PETERSBURG, WV",1606500,1686.64547788309
1622,US,-78.16761,39.92316,"Tonoloway Creek near Needmore, PA",1613050,27.9620145028819
1623,US,-79.27321,38.37592,"NORTH RIVER NEAR STOKESVILLE, VA",1620500,61.3394853618618
1624,US,-78.96078,38.70073,"N F SHENANDOAH RIVER AT COOTES STORE, VA",1632000,547.28661426319
1625,US,-78.72713,38.5445,"SMITH CREEK NEAR NEW MARKET, VA",1632900,249.206632840722
1626,US,-78.44939,39.06919,"CEDAR CREEK NEAR WINCHESTER, VA",1634500,264.494916570036
1627,US,-77.67379,39.2006,"CATOCTIN CREEK AT TAYLORSTOWN, VA",1638480,233.835164483231
1628,US,-77.05279,39.6456,"BIG PIPE CREEK AT BRUCEVILLE, MD",1639500,267.173151363778
1629,US,-77.80391,38.99276,"GOOSE CREEK NEAR LEESBURG, VA",1644000,859.599216683482
1630,US,-77.44194,38.6079,"S F QUANTICO CREEK NEAR INDEPENDENT HILL, VA",1658500,23.6934043075826
1631,US,-78.06367,38.67616,"RAPPAHANNOCK RIVER AT REMINGTON, VA",1664000,1604.66495624983
1632,US,-78.24173,38.43387,"ROBINSON RIVER NEAR LOCUST DALE, VA",1666500,466.183566849612
1633,US,-78.2687,38.35774,"RAPIDAN RIVER NEAR CULPEPER, VA",1667500,1210.77262590582
1634,US,-76.96508,37.86945,"PISCATAWAY CREEK NEAR TAPPAHANNOCK, VA",1669000,75.314402469023
1635,US,-76.80353,37.73868,"DRAGON SWAMP AT MASCOT, VA",1669520,277.684100380617
1636,US,-79.7187,38.20913,"JACKSON RIVER NEAR BACOVA, VA",2011400,409.886628687957
1637,US,-79.75221,38.28783,"BACK CREEK NEAR SUNRISE, VA",2011460,235.863759122429
1638,US,-80.18125,37.75112,"DUNLAP CREEK NEAR COVINGTON, VA",2013000,436.140984238707
1639,US,-80.21602,37.59871,"POTTS CREEK NEAR COVINGTON, VA",2014000,397.255814127822
1640,US,-79.5311,38.32088,"BULLPASTURE RIVER AT WILLIAMSVILLE, VA",2015700,286.338595073815
1641,US,-79.60087,38.12175,"COWPASTURE RIVER NEAR CLIFTON FORGE, VA",2016000,1194.94368219459
1642,US,-80.31146,37.46102,"JOHNS CREEK AT NEW CASTLE, VA",2017500,285.793027563695
1643,US,-80.1843,37.48406,"CRAIG CREEK AT PARR, VA",2018000,852.547068368952
1644,US,-79.02662,37.82809,"TYE RIVER NEAR LOVINGSTON, VA",2027000,241.316842295125
1645,US,-79.10871,37.76551,"PINEY RIVER AT PINEY RIVER, VA",2027500,127.874923802192
